Address,latitude,longitude
"Noida Extension, Noida, Delhi NCR",28.60885,77.46056
"Sector 79, Gurgaon, Delhi NCR",28.37423557,76.95241631
"Vaishali, Ghaziabad, Delhi NCR",28.645769,77.38511
"Link Road, F Block, Sector 50, Noida, Uttar Pradesh, Sector 1, Greater Noida, Delhi NCR",28.566914,77.436434
"Jaypee Pavilion Court Sector 128, Noida, Sector 128, Noida, Delhi NCR",28.520732,77.356491
"tower 2, 6th floor, Crossings Republik, Ghaziabad, Delhi NCR",28.62804,77.437809
"Nirala Aspire, GH03, Sector 16C, Hundal, Greater Noida, Uttar Pradesh 201306, Noida Extension Block C, Noida, Delhi NCR",28.610645,77.455837
"Suncity Avenue 102, Sector 102, Gurgaon Bang on Dwarka Expressway having all Facilities of a gated Society., Sector 102, Gurgaon, Delhi NCR",28.471233,76.969597
"Sector 2, Greater Noida, Sector 2, Greater Noida, Delhi NCR",28.5814311,77.4528192
"Gaur City 5th Avenue, Noida Extension, Noida, Noida Extension, Noida, Delhi NCR",28.614181,77.427713
"Sector 24 Rohini, New Delhi - Rohini, Delhi NCR",28.72407532,77.09558105
"Gurgaon - Faridabad Road, Gurgaon, Delhi NCR",28.436305,77.13605
"Sector 110A, Gurgaon, Chandan Vihar, Gurgaon, Delhi NCR",28.51313972,77.0259552
"H-024, Gulshan Vivante, Sector-137, Noida, Sector 137, Noida, Delhi NCR",28.50746138,77.40781667
"G T Road, Ghaziabad, Delhi NCR",28.679009,77.34929514
"Sector 24 Rohini, New Delhi - Rohini, Delhi NCR",28.72143555,77.10701752
"Sector 24 Rohini, New Delhi - Rohini, Delhi NCR",28.72721291,77.09606171
"Noida Extension, Noida, Delhi NCR",28.61607805,77.42810225
"NeelPadam Kunj, Vaishali, Sector 1, Ghaziabad, Sector 1 Vaishali, Ghaziabad, Delhi NCR",28.64431,77.33178711
"Sector 45, Noida, Sector 45, Noida, Delhi NCR",28.54692971,77.35438729
"Sector 37C, Gurgaon, Delhi NCR",28.449384,76.98441
"Sushant Lok 2, Gurgaon, Delhi NCR",28.423049,77.08741
"Sector 29, Noida, Delhi NCR",28.56973716,77.33241167
"flat number 703, kalypso tower 4, jaypee wish town noida, sector 128, Sector 128, Noida, Delhi NCR",28.529146,77.355843
"Noida Extension, Noida., Noida Extension, Noida, Delhi NCR",28.58749935,77.44316979
"Noida Extension, Noida, Noida Extension, Noida, Delhi NCR",28.616204,77.422256
"Noida extension., Noida Extension, Greater Noida, Delhi NCR",28.57223,77.474898
"Sector 16 Vasundhara, Ghaziabad, Delhi NCR",28.6571606,77.355748
"Vaishali Ghaziabad, Vaishali, Ghaziabad, Delhi NCR",28.645769,77.38511
"Sector 81, Gurgaon, Sector 81, Gurgaon, Delhi NCR",28.387731,76.96791987
"sector 103 gurgaon, Dwarka Expressway, Gurgaon, Delhi NCR",28.49744987,77.02709198
"lotus boulevard, Sector 100, Noida, Delhi NCR",28.54341218,77.367853
"Adhunik CGHS, Opp Tau Devil Lal Bio DiversitPark, Sector 52, Gurugram, Delhi NCR, Sector 52, Gurgaon, Delhi NCR",28.43520877,77.09022523
"Shakti Khand 2, Ghaziabad, Delhi NCR",28.6467392,77.3709475
"Sector 68, Gurgaon, Delhi NCR",28.3907304,77.05782257
"Sector 104, Gurgaon, Sector 104, Gurgaon, Delhi NCR",28.482277,76.99199526
"Aspire1106, Sector 78, Noida, Delhi NCR",28.5604873,77.384084
"Gali No 9, Garhi Jharia Maria, New Delhi - South, Delhi NCR",28.55985069,77.24765015
"Krishna Park Colony, New Delhi - South, Delhi NCR",28.50809,77.2314673
"Amritpuri B East of Kailash, Amritpuri, New Delhi - South, Delhi NCR",28.558586,77.2511855
"Shalimar Garden Exten 1 near Gulmohar park, Shalimar garden, Ghaziabad, Delhi NCR",28.68956947,77.33861542
"205. Hardik tower sector 53 Noida, Sector 53, Noida, Delhi NCR",28.5905383,77.35981
"Gali No-15 Sadnagar Palam New Delhi-110045, Palam Colony, New Delhi - Dwarka, Delhi NCR",28.5922718,77.0836792
"Central park the resorts sector 48 gurgaon, Sector 48, Gurgaon, Delhi NCR",28.424904,77.03476
"Patel Nagar West, New Delhi - West, Delhi NCR",28.652429,77.1643181
"Sector 65, Gurgaon, Delhi NCR",28.3978564,77.07393158
"G 033., Sector 108, Gurgaon, Delhi NCR",28.512136,76.986899
"Ghaziabad, Vivekanand Nagar, Ghaziabad, Delhi NCR",28.65280724,77.4509201
"Gurgaon - Faridabad Road, Gurgaon, Delhi NCR",28.436305,77.13605
"Vaishali, Ghaziabad, Delhi NCR",28.647938,77.340697
"Indirapuram Ghaziabad, Indirapuram, Ghaziabad, Delhi NCR",28.646509,77.38148828
"Sector 108, Gurgaon, Delhi NCR",28.512136,76.986899
"Sector 104, Gurgaon, Sector 104, Gurgaon, Delhi NCR",28.487018,76.998009
"Sector 67, Gurgaon, Sector 67, Gurgaon, Delhi NCR",28.391644,77.06486457
"2nd floor metro view apartment sector 13 B dwarka, Sector 13 Dwarka, New Delhi - Dwarka, Delhi NCR",28.6016823,77.03193279
"Sector 137, Noida, Sector 137, Noida, Delhi NCR",28.50920801,77.40662554
"Vaishali, Ghaziabad, Delhi NCR",28.648794,77.34253225
"sector 6 dwarka, Sector 6 Dwarka, New Delhi - Dwarka, Delhi NCR",28.59344,77.065951
"Chhatarpur New Delhi, Chhattarpur, New Delhi - South, Delhi NCR",28.49589348,77.18599701
"Sohna Road, Gurgaon, Sector 33, Gurgaon, Delhi NCR",28.28709602,77.06906128
"Sector 84, Gurugram, Haryana, Sihi, Gurgaon, Delhi NCR",28.410466,76.962531
"Sector 76, Noida, Sector 76, Noida, Delhi NCR",28.570142,77.386273
"Dwarka, New Delhi - Dwarka, Delhi NCR",28.59343183,77.04427276
"sector 1 greater noida west, Greater Noida West, Greater Noida, Delhi NCR",28.566914,77.436434
"Ibiza Town, Suraj Kund Road, Faridabad, Suraj Kund, Faridabad, Delhi NCR",28.4818021,77.2200217
"Plot No:1, Sadarpur, Sector-45, Noida, Uttar Pradesh 201303, Sector 45, Noida, Delhi NCR",28.548787,77.346032
"Sector 32 Sohna Gurgaon Haryana, Sohna, Gurgaon, Delhi NCR",28.247592,77.069185
"Indirapuram, Ghaziabad, Delhi NCR",28.6493479,77.3696259
"Sector 137, Noida, Sector 137, Noida, Delhi NCR",28.509118,77.413416
"Sai Enclave niti khand indirapuram, Niti Khand-Indirapuram, Ghaziabad, Delhi NCR",28.6452824,77.3621025
"Greater Noida, Greater Noida West, Greater Noida, Delhi NCR",28.579593,77.445197
"F-54., South City 2, Gurgaon, Delhi NCR",28.4178669,77.0512457
"NH 24 Ghaziabad, NH 24, Ghaziabad, Delhi NCR",28.685449,77.5092258
"Park Lotus Surajpur Greater Noida, Surajpur, Greater Noida, Delhi NCR",28.51284137,77.48955332
"Gurgaon - Faridabad Road, Gurgaon, Gwal Pahari, Gurgaon - South, Delhi NCR",28.433653,77.152919
"Unitech Horizon Greater Noida, PI 2, Greater Noida, Delhi NCR",28.475274,77.545978
"NH 24 Ghaziabad, NH 24, Ghaziabad, Delhi NCR",28.519997,77.376873
"plot no -02 E sector 12  Graeter noida west, Greater Noida West, Noida, Delhi NCR",28.60595894,77.44451141
"godrej golf links, the crest, Pari Chowk, Greater Noida, Delhi NCR",28.4655907,77.5114027
"Sector 4, Greater Noida, Greater Noida West, Greater Noida, Delhi NCR",28.609898,77.436343
"Paschim Vihar, New Delhi - West, Delhi NCR",28.6677244,77.0979515
"A33 Shishram park Uttam Nagar, Uttam Nagar East, New Delhi - West, Delhi NCR",28.63472366,77.04911041
"B1 1103 The Romano sector 118 Noida, Sector 118, Noida, Delhi NCR",28.58548927,77.39931488
"Sector 99, Gurgaon, Delhi NCR",28.44456311,76.9550119
"Pratap vihar Ghaziabad, Pratap Vihar, Ghaziabad, Delhi NCR",28.63336372,77.43121338
"Sultanpur, New Delhi, Sultanpur, New Delhi - South, Delhi NCR",28.4969141,77.1652546
"Sector 71, Gurgaon, Delhi NCR",28.419032,77.028272
"Gali no 4, behind Aman bakery, Mahavir Enclave Part 1, New Delhi - Dwarka, Delhi NCR",28.59803581,77.07652283
"greater noida, Jalvayu Vihar, Greater Noida, Delhi NCR",28.446343,77.515305
"Bhopura, Ghaziabad, Delhi NCR",28.7005505,77.3286995
"Ashoka Enclave Part 1, Faridabad, Delhi NCR",28.46847725,77.31389618
"Sector 5 Rajendra Nagar, Ghaziabad, Delhi NCR",28.6809994,77.356998
"Unitech Fresco Nirvana Country Sector 50, Gurgaon, Nirvana Country, Gurgaon, Delhi NCR",28.414627,77.060127
"Plot No. GH 03/A, Sector 143, Noida, Uttar Pradesh 201306, Sector 143A, Noida, Delhi NCR",28.502597,77.428742
"Noida Extension, Noida, Noida Extension, Noida, Delhi NCR",28.616204,77.422256
"Golf Course Road, Gurgaon, Golf Course Road, Gurgaon, Delhi NCR",28.43618253,77.10430584
"panchwati appartments, Vikaspuri, New Delhi - West, Delhi NCR",28.64015875,77.0662659
"B-31/S-1, B- Block, Dilshad Garden, Shahdara, Delhi-110095, Dilshad Garden, New Delhi - East, Delhi NCR",28.68651581,77.29942322
"Sector 37D, Gurgaon, Delhi NCR",28.45251307,76.97627035
"Raj Nagar Extension, Ghaziabad, Delhi NCR",28.70183798,77.42320672
"S Block, Sector 49, Gurgaon, Delhi NCR",28.412109,77.049522
"Sector-82, Mapsko Casa Bella, Sector 82, Gurgaon, Delhi NCR",28.393665,76.962842
"sector 84, Sihi, Gurgaon, Delhi NCR",28.406752,76.96474017
"Sector 119, Noida -201301, Sector 119, Noida, Delhi NCR",28.58632879,77.40106202
"omicran near Parichowk supertech Czar, Omicron, Greater Noida, Delhi NCR",28.473679,77.506258
"Ajanra le Garden, sector 16, greater noida, dist. Gautam budh nagar. U.P., Greater Noida West, Greater Noida, Delhi NCR",28.606945,77.45557857
"Sector 27, Greater Noida, Noida, Uttar Pradesh, Sector 27, Greater Noida, Delhi NCR",28.470149,77.535673
"Sector 77, Gurgaon, Delhi NCR",28.3824895,76.9823169
"Eastend Aptts, Mayur Vihar 1, New Delhi - East, Delhi NCR",28.5884566,77.304787
"Sector 10 Dwarka, New Delhi - Dwarka, Delhi NCR",28.58584227,77.06062479
"Moti Nagar, New Delhi - West, Delhi NCR",28.66662979,77.15222168
"sector 12 gurgaon, Sector 12, Gurgaon, Delhi NCR",28.4974556,77.02713776
"Kumar Excellency plaza, Sector 11 Vasundhara, Ghaziabad, Delhi NCR",28.65584564,77.3682251
"Sector 90, Gurugram, Haryana 122505, Sector 90, Gurgaon, Delhi NCR",28.407361,76.93426176
"Sanjiv Malhotra D-2, 208/209, Ground Floor Sector-11, Rohin, New Delhi- 110085, Sector 11 Rohini, New Delhi - Rohini, Delhi NCR",28.7295315,77.106949
"Sector 143, Noida, Sector 143, Noida, Delhi NCR",28.500621,77.424203
"Paschim Vihar, New Delhi, Paschim Vihar, New Delhi - West, Delhi NCR",28.66287399,77.09776702
"415  81High street mall sector 81 not pull greater Faridabad, Sector 81, Faridabad, Delhi NCR",28.3924408,77.34424591
"Uttam Nagar West, New Delhi - West, Delhi NCR",28.618239,77.054361
"G Tower, Amrapali Sapphire Phase I, Sector 45, Noida, Delhi NCR",28.548787,77.346032
"Sector 69, Gurgaon, Sector 69, Gurgaon, Delhi NCR",28.397731,77.036526
"Sector 129, Noida, Delhi NCR",28.524543,77.364765
"Sector 143, Noida, Delhi NCR",28.500621,77.424203
"Sector 128 Noida, Sector 128, Noida, Delhi NCR",28.52798043,77.354191
"DLF Capital Greens Phase 1, Moti Nagar, New Delhi - West, Delhi NCR",28.666059,77.150134
"895., Mehrauli, New Delhi - South, Delhi NCR",28.5201861,77.179158
"Near Dashmesh Hospital, Jail Road, Shiv Nagar, New Delhi - West, Delhi NCR",28.6288025,77.0958556
"Sector 67, Gurgaon, Delhi NCR",28.38762,77.06237
"Vasundhara, Ghaziabad, Vasundhara, Ghaziabad, Delhi NCR",28.65493,77.350989
"firstfloor, Sushant Lok 1 Block C, Gurgaon, Delhi NCR",28.45451736,77.08187103
"Sec 30, Near N M C hospital, Noida, Ram Vihar, Noida, Delhi NCR",28.576661,77.339673
"Unitech Unihomes, Tower A1, Sector-117, Noida, Sector 117, Noida, Delhi NCR",28.57763481,77.39510345
"Lajpat Nagar, New Delhi, Lajpat Nagar 4, New Delhi - South, Delhi NCR",28.564363,77.24171
"Plot Number 6 Flat number 101  Hans enclave Gurgaon, Hans Enclave, Gurgaon, Delhi NCR",28.49746704,77.02709961
"Vasundhara Enclave, New Delhi - East, Delhi NCR",28.6017251,77.3178069
"Row House, Sector 21 Surya Vihar-, Gurgaon, Delhi NCR",28.51766396,77.07933044
"Sector 37D, Gurgaon, Delhi NCR",28.446568,76.968477
"4a/301, Sector 85, Gurgaon, Delhi NCR",28.406684,76.952289
"Noida-Greater Noida Expy, Sector 134, Noida, Uttar Pradesh, Sector 134, Noida, Delhi NCR",28.503955,77.384451
"Wave Floor Sec- 2, Wave City N.H. - 24 Ghaziabad, Wave City, Ghaziabad, Delhi NCR",28.646836,77.508238
"Indirapuram, Nyay Khand 1, Ghaziabad, Delhi NCR",28.63350296,77.43159485
"Sector 70A, Gurgaon, Delhi NCR",28.385432,77.017122
"Sector 48, Gurgaon, Delhi NCR",28.41492081,77.03590393
"Sector 80, Gurgaon, Sector 80, Gurgaon, Delhi NCR",28.37561513,76.95761609
"Yamuna Expressway, Greater Noida, Delhi NCR",28.309616,77.55859
"Sector 137, Noida, Delhi NCR",28.505584,77.410762
"Niti Khand  1 Indirapuram Ghaziabad, Niti Khand-Indirapuram, Ghaziabad, Delhi NCR",28.63601494,77.43365479
"Plot No.1, Gadaipur, Mehrauli-Mandi Road, Gadaipur, New Delhi - South, Delhi NCR",28.4826489,77.1600563
"sector 2, Rajendra Nagar, Ghaziabad, Delhi NCR",28.68176651,77.36365509
"I block - 21069, Noida Extension, Noida, Delhi NCR",28.616204,77.422256
"Sector 60, Gurgaon, Delhi NCR",28.400064,77.0959513
"Sector 42, Gurgaon, Delhi NCR",28.45846939,77.10864258
"NH 24, Ghaziabad, NH 24, Ghaziabad, Delhi NCR",28.663705,77.470854
"Sector 17, Faridabad, Delhi NCR",28.40966797,77.33113861
"Vasundhara, Ghaziabad, Delhi NCR",28.655782,77.3527833
"H.No. 18A, Adarsh Nagar, Nandgram, Ghaziabad, Nand Gram, Ghaziabad, Delhi NCR",28.69149399,77.40766907
"Dwarka Sector 22, New Delhi, Sector 22 Dwarka, New Delhi - Dwarka, Delhi NCR",28.5593993,77.0596789
"Raj Nagar Extension Ghaziabad, Raj Nagar Extension, Ghaziabad, Delhi NCR",28.70019204,77.427474
"2 Floor, Sector 16A, Faridabad, Delhi NCR",28.4088605,77.314687
"Sector 37D, Gurgaon, Sector 37D, Gurgaon, Delhi NCR",28.455376,76.97621181
"Moti Nagar, New Delhi, Moti Nagar, New Delhi - West, Delhi NCR",28.66605949,77.15013123
"Faridabad, Faridabad, Delhi NCR",28.48146057,77.31151581
"Indirapuram, Ghaziabad, Vaibhav Khand, Ghaziabad, Delhi NCR",28.63822365,77.3663559
"Shakti Khand 2, Shakti Khand 2, Ghaziabad, Delhi NCR",28.64673996,77.37094879
"Indirapuram, Ghaziabad, Indirapuram, Ghaziabad, Delhi NCR",28.646093,77.384003
"Cgu061., Kirti Nagar, New Delhi - West, Delhi NCR",28.666059,77.150134
"Sector 45, Noida, Sector 45, Noida, Delhi NCR",28.548787,77.346032
"GA 703 Assotech Windsor court Sector 78Noida, Sector 78, Noida, Delhi NCR",28.56118696,77.3865692
"Golf course Extension Road, Gurgaon, Sector 66, Gurgaon, Delhi NCR",28.401255,77.053437
"Second Floor Villa 83 Block III Charmwood Village, Charmwood Village, Faridabad, Delhi NCR",28.4913752,77.2908548
"Sector 75, Noida, Sector 75, Noida, Delhi NCR",28.57844059,77.38140753
"Sector 143B, Noida, Uttar Pardes, Sector 143 B, Noida, Delhi NCR",28.495486,77.25219
"151., Indirapuram, Ghaziabad, Delhi NCR",28.6493479,77.3696259
"Sector 143A, Noida, Delhi NCR",28.4992485,77.42980194
"Sector 35 Sohna, Gurgaon, Delhi NCR",28.283682,77.047379
"Upper Ground Floor Plot Number 101 Lane No 6  Dwarka Mor Delhi West Delhi, Dwarka Mor, New Delhi - West, Delhi NCR",28.63477325,77.04909515
"Sector 19 Dwarka, New Delhi - Dwarka, Delhi NCR",28.57751279,77.04253534
"Flat no. 1404 Floor 14th Tower Peace  Wing B Sikka Karni Green Sector 78 Noida, Sector 78, Noida, Delhi NCR",28.5604873,77.384084
"Swaroop garden gurgaon, Rajendra Park, Gurgaon, Delhi NCR",28.49748611,77.02713013
"Rr 9 top floor, naveen shahdara., Naveen Shahdara, New Delhi - East, Delhi NCR",28.6761322,77.28523254
"Mahindra Aura, Sector 110 A, Sector 110A, Gurgaon, Delhi NCR",28.513139,77.025952
"Indirapuram, Ghaziabad, Delhi NCR",28.64859324,77.37943921
"E 55B Vishwakarma Colony MB Road New Delhi 110044, Vishwakarma Colony, New Delhi - South, Delhi NCR",28.52402496,77.21276093
"FLAT NO.301FLOOR-3RDBlock-HSECTOR 78-79MAPSKOMOUNTIVILLEGURGAON, Sector 79, Gurgaon, Delhi NCR",28.37423557,76.95241631
"342 Durgapuri Extension Delhi India, Durgapuri Extension, New Delhi - East, Delhi NCR",28.68654251,77.29959869
"flat no 1203 Paras seasons 168 Noida, Sector 168, Noida, Delhi NCR",28.49629327,77.40851995
"15051., Sector 150, Noida, Delhi NCR",28.42491581,77.486721
"Lg3/78., Sector 6 Vaishali, Ghaziabad, Delhi NCR",28.6485885,77.3533389
"Delhi., Subhash Park-Shahdara, New Delhi - East, Delhi NCR",28.68657303,77.29962921
"Kalkaji, New Delhi - South, Delhi NCR",28.54366493,77.25489807
"D 1001 BPTP Freedom Park Life Sector 57 Gurgaon, Sector 57, Gurgaon, Delhi NCR",28.42343946,77.06910666
"C-177, First Floot, Kendriya Vihar, Sector 56, Gurgaon, Kendriya Vihar, Gurgaon, Delhi NCR",28.42451064,77.10132459
"601., Sector 21C, Faridabad, Delhi NCR",28.43034935,77.29561615
"Near Andolan Park, Canara Bank, Savitri Nagar Village, New Delhi - South, Delhi NCR",28.539814,77.21868134
"Shivani enclave old palam road kakrola dwarka., Kakrola, New Delhi - Dwarka, Delhi NCR",28.63474274,77.04910278
"Bhopura, Ghaziabad, Delhi NCR",28.728555,77.337353
"Sector 119, Noida, Delhi NCR",28.58986171,77.40343376
"Sector 53 Vipul Belmonte  Golf Course Road Gurgaon  Flat no.1402 Tower 2, Sector 53, Gurgaon, Delhi NCR",28.44073838,77.10126474
"Raj Nagar Extension, NH 58, Ghaziabad, Uttar Pradesh, India., Raj Nagar, Ghaziabad, Delhi NCR",28.682107,77.4465784
"Sector 27, Greater Noida, Noida, Uttar Pradesh, Sector 27, Greater Noida, Delhi NCR",28.470149,77.535673
"Laxmi Nagar, New Delhi - East, Delhi NCR",28.68641663,77.29958344
"Golf Course Road, Gurgaon, Golf Course Road, Gurgaon, Delhi NCR",28.441368,77.098124
"Sector 75, Noida, Sector 75, Noida, Delhi NCR",28.5750243,77.3803
"Sector 70 Gurgaon, Sector 70, Gurgaon, Delhi NCR",28.3930662,77.022442
"janki puri, Uttam Nagar, New Delhi - West, Delhi NCR",28.6212883,77.05307007
"sanskriti Vihar GC 16, C-16, Greater Noida, Delhi NCR",28.453581,77.556221
"Gaur Green City 2, Avenue 16, Noida Extension Block D, Noida, Delhi NCR",28.619028,77.425972
"palam Village Delhi, Palam, New Delhi - Dwarka, Delhi NCR",28.63475037,77.0491333
"Sector 37D, Gurgaon, Delhi NCR",28.4460523,76.9772858
"Sector 76, Noida, Delhi NCR",28.5684777,77.3775
"Sector 15 Dwarka, New Delhi - Dwarka, Delhi NCR",28.615032,77.0290715
"1162., Sector 57, Gurgaon, Delhi NCR",28.4215541,77.0780609
"Sector 56, Gurgaon, Delhi NCR",28.42443657,77.0982132
"Vasundhara sector 5 ghaziabad, Vasundhara, Ghaziabad, Delhi NCR",28.64231873,77.4211731
"Shalimar garden Ghaziabad, Shalimar garden, Ghaziabad, Delhi NCR",28.63578224,77.43241882
"naer bluebells school, Sector 4, Gurgaon, Delhi NCR",28.47489357,77.00980377
"Indirapuram, Ghaziabad, Delhi NCR",28.6493479,77.3696259
"Sector 68, Gurgaon, Sector 68, Gurgaon, Delhi NCR",28.386791,77.049466
"201 Whitney homes sector 121 noida, Sector 121, Noida, Delhi NCR",28.60042,77.44546509
"Alistonia Estate, Greater Noida, Delhi NCR",28.43831635,77.51483154
"Zeta 2, Greater Noida, Delhi NCR",28.517742,77.529334
"FirstTower at Gate2T18 Flat Floor-No06-02, Type C, Unit Type 3BHK Servent 3T UT., Sector 137, Noida, Delhi NCR",28.58907509,77.32030487
"Avantika Extension, Ghaziabad, Delhi NCR",28.6738471,77.4829531
"Antriksh Golf view 1Sector 78Noida, Sector 78, Noida, Delhi NCR",28.5575028,77.38646497
"Sector 76, Gurgaon, Sector 76, Gurgaon, Delhi NCR",28.39343,76.99731
"Sector 47 Sohna Road, Sector 47, Gurgaon, Delhi NCR",28.425657,77.04300339
"plot number 2261 Adarsh Nagar gurgaon, Adarsh Nagar, Gurgaon, Delhi NCR",28.49742317,77.02734375
"Eldeco Golf View Apartments, Sector Omega 1, Greater Noida, Uttar Pradesh, Omega 1, Greater Noida, Delhi NCR",28.4570313,77.514304
"Sector 119, Noida, Sector 119, Noida, Delhi NCR",28.588371,77.400313
"A5 Kewal Park Extension Delhi India, Kewal Park, New Delhi - North, Delhi NCR",28.68641853,77.29956055
"c113 3rd floor Shakti nagar extension ashok vihar phase 3 Delhi 110052, Ashok Vihar Phase 3, New Delhi - North, Delhi NCR",28.68220329,77.18806458
"Sadullapur, Near Bloom International School, Greater Noida West, Sadullapur, Greater Noida, Delhi NCR",28.591666,77.484749
"Indirapuram Ghaziabad, Indirapuram, Ghaziabad, Delhi NCR",28.641756,77.37885936
"Dwarka Sector 23, New Delhi, Sector 23 Dwarka, New Delhi - Dwarka, Delhi NCR",28.56213384,77.05678938
"Sector 46, Noida, Delhi NCR",28.55075433,77.36168745
"Gyan Khand 1, Ghaziabad, Delhi NCR",28.641779,77.3502969
"ireo uptown Sector 66 gurgaon, Sector 66, Gurgaon, Delhi NCR",28.39522652,77.05988662
"Plot no- 77 Sector 13 Dwarka, Sector 13 Dwarka, New Delhi - Dwarka, Delhi NCR",28.5994675,77.0349205
"K tower, Sector 45, Noida, Delhi NCR",28.548787,77.346032
"Sector 30, Gurgaon, Jal Vayu Vihar, Gurgaon, Delhi NCR",28.45847235,77.05255654
"Shalimar Garden Extension 1, Ghaziabad, Delhi NCR",28.63367653,77.43097687
"D Block Jawahar Park KhanpurNew Delhi, Jawahar Park, New Delhi - South, Delhi NCR",28.52319527,77.21430969
"Kaushambi, Ghaziabad, Kaushambi, Ghaziabad, Delhi NCR",28.63544909,77.32381434
"Omicron 1, Greater Noida, Delhi NCR",28.46267033,77.55830252
"Sector 107, Gurgaon, Delhi NCR",28.514908,76.974388
"Tech Zone IV Gautam Budh NagarGreater Noida (West), Greater Noida West, Greater Noida, Delhi NCR",28.605958,77.444512
"House No 47 Block E  Floor 1 Sec 11 Faridabad, Sector 11, Faridabad, Delhi NCR",28.34699821,77.32400513
"Sector 1, Greater Noida, Delhi NCR",28.5661101,77.4406099
"2931., Sushant Lok 1 Block C, Gurgaon, Delhi NCR",28.454517,77.081868
"T1 - 401., Sector 37D, Gurgaon, Delhi NCR",28.45251307,76.97627035
"Noida Extension, Greater Noida, Noida Extension, Greater Noida, Delhi NCR",28.617567,77.426765
"Sector 6 Dwarka, New Delhi - Dwarka, Delhi NCR",28.5962,77.067013
"Sector 107, Gurgaon, Dwarka-Manesar Expressway, Gurgaon, Delhi NCR",28.51348116,76.971479
"C4A/9A Janak Puri New Delhi 110058, Janakpuri, New Delhi - West, Delhi NCR",28.621054,77.0905294
"Sector 88, Faridabad, Delhi NCR",28.41891989,77.35557595
"c-1/41 a, Budh Vihar Phase 1, New Delhi - Rohini, Delhi NCR",28.63664055,77.12469482
"Indirapuram, Ghaziabad, Uttar Pradesh, Gyan Khand 3, Ghaziabad, Delhi NCR",28.645341,77.35492932
"Vasundhara Enclave, New Delhi - East, Delhi NCR",28.60052361,77.31160783
"Pocket 4 Akash Ganga Appartment  Sector 24, Sector 24 Rohini, New Delhi - Rohini, Delhi NCR",28.72650572,77.08336654
"Sector 76, Noida, Delhi NCR",28.56854169,77.37929993
"aditya world city NH 24 Ghaziabad, NH 24, Ghaziabad, Delhi NCR",28.683082,77.50921
"Block E, Sector 85, Faridabad, Sector 85, Faridabad, Delhi NCR",28.4042306,77.3559561
"R025d101203/flat #1203., Greater Noida West, Noida, Delhi NCR",28.605958,77.444512
"N Block Greater Kailash 1, GK I, New Delhi - South, Delhi NCR",28.52293205,77.21456909
"Sector 119, Noida, Sector 119, Noida, Delhi NCR",28.58986171,77.40343376
"Ranjeet Nagar, New Delhi - West, Delhi NCR",28.634758,77.04909515
"E-1005, Prateek Laurel, sector-120, Sector 120, Noida, Delhi NCR",28.58731051,77.39590178
"Sector 62Noida stellar park apartments, C Block, Noida, Delhi NCR",28.61413193,77.36986542
"TH - 63, Jaypee Wishtown, Jaypee Greens, Sector - 128, Noida, Sector 128, Noida, Delhi NCR",28.526555,77.363882
"Greater Noida West, Greater Noida West, Greater Noida, Delhi NCR",28.579593,77.445197
"C 409 B  Sushant Lok Phase 1  Gurgaon, Sushant Lok 1 Block C, Gurgaon, Delhi NCR",28.34468651,77.32616425
"Sector 168, Noida, Sector 168, Noida, Delhi NCR",28.493247,77.408015
"Gaur Yamuna City 16th Park View, Taj Expressway, Noida, Delhi NCR",28.43244553,77.50791931
"Sector 85, Gurgaon, Sector 85, Gurgaon, Delhi NCR",28.409389,76.951659
"D-7/23 Sector 15 Rohini, Sector 15 Rohini, New Delhi - Rohini, Delhi NCR",28.63474083,77.04914856
"Sector 137, Noida, Sector 137, Noida, Delhi NCR",28.509118,77.413416
"Sector 5, Vasundhara, Ghaziabad, Uttar Pradesh., Sector 5 Vasundhara, Ghaziabad, Delhi NCR",28.660121,77.379704
"Sector C Vasant Kunj, New Delhi - South, Delhi NCR",28.53547478,77.14489746
"H block dlf phase 1 Gurugram, DLF City Phase 1, Gurgaon, Delhi NCR",28.49748039,77.02710724
"Sector 76, Noida, Sector 76, Noida, Delhi NCR",28.575883,77.38535896
"Gurgaon, Sector 105, Gurgaon, Delhi NCR",28.4975071,77.02711487
"Sector 79, Gurgaon, Delhi NCR",28.35895365,76.971587
"Sector 107, Noida, Delhi NCR",28.54291259,77.37203149
"G T Road, Ghaziabad, Delhi NCR",28.6761798,77.39628201
"Sector 2 Rajendra Nagar, Ghaziabad, Delhi NCR",28.687614,77.351924
"Sector 137, Noida, Delhi NCR",28.508273,77.40897616
"Vasundhara Enclave, New Delhi - East, Delhi NCR",28.60172462,77.31781006
"Nehru Nagar Ghaziabad, Nehru Nagar, Ghaziabad, Delhi NCR",28.63609123,77.43346405
"Flat B-1201, BPTP Princess Park, Sector 86, Neherpar, Faridabad, Faridabad, Sector 86, Faridabad, Delhi NCR",28.40652341,77.34299342
"Sector 63A, Gurgaon, Delhi NCR",28.397099,77.086716
"Sector 43, Gurgaon, Delhi NCR",28.45518494,77.08667755
"Alpha 1, Greater Noida, Uttar Pradesh",28.47346783,77.5053686
"Hari Nagar Ashram New Delhi, Hari Nagar Ashram, New Delhi - South, Delhi NCR",28.49679565,77.22851563
"Sector 51, Gurgaon, Delhi NCR",28.4287815,77.0661409
"New Delhi, Safdarjung Enclave, Safdarjung Enclave, New Delhi - South, Delhi NCR",28.564027,77.1945069
"Indirapuram, Ghaziabad, Indirapuram, Ghaziabad, Delhi NCR",28.650108,77.363755
"Siddhartha Vihar Ghaziabad, Siddhartha Vihar, Ghaziabad, Delhi NCR",28.646286,77.406051
"Rajendra Park, Gurgaon, Delhi NCR",28.49760246,77.02706909
"Gautam budh nagar, Greater Noida, Delhi NCR",28.469204,77.511335
"Sudipto roy, c-1/33, sf4, dlf ankur vihar, loni, ghaziabad., Loni, Ghaziabad, Delhi NCR",28.738864,77.263605
"B3 Tower, Sector 52, Gurgaon, Delhi NCR",28.44359908,77.07986181
"sector 48 Gurgaon, Sohna Road, Gurgaon, Delhi NCR",28.41247483,77.039877
"332 A, Tower - 32, Gulmohur Greens, Mohan Nagar, Ghaziabad, Uttar Pradesh, Pin - 201005, Gulmohur Greens, Ghaziabad, Delhi NCR",28.68659592,77.37294769
"H2-1101., Bhopura, Ghaziabad, Delhi NCR",28.72645304,77.33733853
"JC-34, Ground Floor, Khirki Extention, Malviya Nagar, New Delhi, Khirki extension, New Delhi - South, Delhi NCR",28.5315337,77.216852
"Noida Extension, Greater Noida, Delhi NCR",28.532593,77.399792
"Mahavir Enclave Part 1, New Delhi - Dwarka, Delhi NCR",28.5980365,77.0765245
"Ace aspire, Noida Extension, Noida, Delhi NCR",28.58945997,77.429712
"Flat No 701 Tower 3 Floor 7 Sec 48 Faridabad, Sector 48, Faridabad, Delhi NCR",28.41063434,77.28620611
"GH 04, Sector 16C, Gaur City 2, Greater Noida, Uttar Pradesh 201318, Noida Extension, Noida, Delhi NCR",28.620768,77.425805
"Sector 49 Faridabad, Sector 49, Faridabad, Delhi NCR",28.34562111,77.32642365
"Plot No. GH 03/A, Sector 143, Noida, Uttar Pradesh 201306, Sector 143 B, Noida, Delhi NCR",28.50320625,77.42758179
"Sector 137, Noida, Delhi NCR",28.5073636,77.4091
"Sector 88A, Gurugram, Haryana, Sector 88A, Gurgaon, Delhi NCR",28.43058099,76.94862
"Sector 143, Noida, Delhi NCR",28.502597,77.428742
"Dream Homes Nh24, NH 24, Ghaziabad, Delhi NCR",28.63857269,77.4308548
"Sector 50, Noida, Delhi NCR, Sector 50, Noida, Delhi NCR",28.57150078,77.37000275
"Gurgaon - Faridabad Road, Gurgaon, Delhi NCR",28.436305,77.13605
"Ghaziabad kaushambi, Kaushambi, Ghaziabad, Delhi NCR",28.6390639,77.3242583
"plot number 34 block H10 vatika Emelia floors sector 82 gurgaon, Sector 82, Gurgaon, Delhi NCR",28.49747658,77.0271225
"Second Floor with roof, Sector 5 Vaishali, Ghaziabad, Delhi NCR",28.643642,77.34532
"Chiranjeev Vihar, Ghaziabad, Chiranjiv Vihar, Ghaziabad, Delhi NCR",28.675872,77.474266
"Prateek Grand City, Siddharth Vihar, Ghaziabad, Siddhartha Vihar, Ghaziabad, Delhi NCR",28.646286,77.406051
"S 485 School block Shakarpur Delhi India, Shakarpur, New Delhi - East, Delhi NCR",28.68652344,77.29961395
"Kiran Garden, New Delhi - West, Delhi NCR",28.61848831,77.04781342
"Sector 86, Faridabad, Delhi NCR",28.40964244,77.33940931
"Kamla Nagar, New Delhi - North, Delhi NCR",28.68645096,77.29950714
"Sector 80, Faridabad, Delhi NCR",28.3751182,77.34874476
"Sector 7, Gurgaon, Delhi NCR",28.4658641,77.0133095
"Sector 107, Gurgaon, Sector 107, Gurgaon, Delhi NCR",28.514908,76.974388
"vaishali Ghaziabad, Sector 3 Vaishali, Ghaziabad, Delhi NCR",28.64155769,77.34053802
"sec 5 Vasundhara Ghaziabad, Sector 5 Vasundhara, Ghaziabad, Delhi NCR",28.63623238,77.43350983
"C-16, Greater Noida, Delhi NCR",28.453581,77.556221
"Flat no. 703 7th Floor  Multistorey Appartmemt Tower Alpine Divine Meadows Sector 108 Noida 201301, Sector 108, Noida, Delhi NCR",28.52544019,77.37445081
"Sector 93Noida parsvanath srishti, Sector 93, Noida, Delhi NCR",28.51853317,77.38684415
"New krishna nagar, gali no-5 near radheypuri jain mandir, Krishna Nagar, New Delhi - East, Delhi NCR",28.68657112,77.29962921
"Ajnara Le Garden Greater Noida West, Greater Noida West, Greater Noida, Delhi NCR",28.606945,77.45557857
"Ashoka Enclave Part 3, Faridabad, Delhi NCR",28.470754,77.308632
"Sector 52  Gurgaon, Sector 52, Gurgaon, Delhi NCR",28.43599347,77.09031699
"302, pearl square., Vaishali, Ghaziabad, Delhi NCR",28.645225,77.342198
"Mohan Garden, Uttam Nagar, Mohan Garden, New Delhi - West, Delhi NCR",28.6330645,77.0331715
"Sector 70A, Gurgaon, Sector 70A, Gurgaon, Delhi NCR",28.383489,77.020563
"Efp-iii-37-0202., Sector 65, Gurgaon, Delhi NCR",28.397952,77.069057
"GGN 01 0202 Sector 102 Gurgaon, Sector 102, Gurgaon, Delhi NCR",28.47631073,76.97161102
"Plot no 46-47, Pocket size, Rohini Sector 21, Sector 21 Rohini, New Delhi - Rohini, Delhi NCR",28.7141266,77.0676456
"New Delhi, Meera Bagh, New Delhi - West, Delhi NCR",28.65758705,77.08957672
"f-801, Sector 78, Noida, Delhi NCR",28.560232,77.38860669
"D-252, Sushant Lok-2 Golf course road gurugram, Gurgaon, Sushant Lok 2, Gurgaon, Delhi NCR",28.34563255,77.32644653
"sector 37C gurgaon, Sector 37C, Gurgaon, Delhi NCR",28.44926,76.98476024
"T tower, Dlf City Phase 4, Gurgaon, Delhi NCR",28.464031,77.08547543
"Rz- 89/A, Nand vihar Near Dwarka Metro Station, Dwarka New Delhi -78, Sector 16 Dwarka, New Delhi - Dwarka, Delhi NCR",28.63477135,77.04911041
"F-479, Sarita Vihar Pocket F, New Delhi - South, Delhi NCR",28.5336945,77.295901
"183 flat no.3 tower 1 floor 8th Windsor GreensSector 50 Noida 201301, Sector 50, Noida, Delhi NCR",28.578346,77.37369258
"New Delhi, Gurgaon, Delhi NCR",28.70186234,77.14009857
"Loni, Ghaziabad, Delhi NCR",28.7662162,77.2705047
"Swarnnagari, Greater Noida, Swarnnagari, Greater Noida, Delhi NCR",28.45887906,77.52271124
"Sector 45, Noida, Delhi NCR",28.548787,77.346032
"Greater Noida West, Greater Noida, Sector 16, Greater Noida, Delhi NCR",28.60477829,77.45191193
"Bhopura, Ghaziabad, Delhi NCR",28.7005505,77.3286995
"New Delhi, Dwarka Mor, New Delhi - West, Delhi NCR",28.6193161,77.03326416
"144., Sector 4 Dwarka, New Delhi - Dwarka, Delhi NCR",28.60241996,77.05425039
"Sector 82, Gurgaon, Delhi NCR",28.38981649,76.969342
"Bhopura, Ghaziabad, Bhopura, Ghaziabad, Delhi NCR",28.72645304,77.33733853
"Ramprastha Edge Towers, Dwarka Expressway, Gurgaon, Delhi NCR",28.44837761,76.9695282
"near IGNOU University, Neb Sarai, New Delhi - South, Delhi NCR",28.50693703,77.20652771
"903., Behrampur, Gurgaon, Delhi NCR",28.410913,77.107908
"G1104 Brave hearts Rajnagar extension Ghaziabad, Raj Nagar Extension, Ghaziabad, Delhi NCR",28.70689747,77.429488
"Govindpuram, Ghaziabad, Delhi NCR",28.617142,77.438927
"H 304., Sector 70, Noida, Delhi NCR",28.59594917,77.38369751
"Raj Nagar Extension, Ghaziabad, Garhi, Ghaziabad, Delhi NCR",28.63595772,77.43235779
"Village Sheikh Sarai, Nr Reliance Fresh.  New Delhi-110017, Savitri Nagar Village, New Delhi - South, Delhi NCR",28.5398139,77.2186828
"Sector 143, Noida, Delhi NCR",28.500621,77.424203
"A-1625., Greenfields Colony Block A, Faridabad, Delhi NCR",28.465711,77.2962675
"plot 131 flat ff3 Gyan khand 1 Indirapuram Ghaziabad, Gyan Khand 1, Ghaziabad, Delhi NCR",28.64177895,77.35029602
"Sector 34, Noida, Delhi NCR",28.58390999,77.36087036
"Naraina, New Delhi - West, Delhi NCR",28.63158035,77.14045715
"Mahavir Enclave Part 1, New Delhi - Dwarka, Delhi NCR",28.5980365,77.0765245
"vikas vihar New Delhi, Uttam Nagar East, New Delhi - West, Delhi NCR",28.63476944,77.04902649
"A-601., Sector 77, Gurgaon, Delhi NCR",28.387227,76.980183
"EARTH UMIYA SADAN, PATEL CGHS, SECTOR 4, DWARKA, Sector 4 Dwarka, New Delhi - Dwarka, Delhi NCR",28.6014648,77.05241473
"Plot no 3 SPS Homes 1st Floor  Flat No 001 Ashok vihar Phase 2 Gurgaon, Ashok Vihar Phase 2, Gurgaon, Delhi NCR",28.4838094,77.027832
"Sector 32 Sohna, Gurgaon, Delhi NCR",28.283756,77.079837
"flat No. F1 Plot No. 34 First Floor Vikram Enclave Shalimar Garden Extn. Distt. Ghaziabad ., Vikram Enclave, Ghaziabad, Delhi NCR",28.66864395,77.47614288
"Vijay Enclave, New Delhi - West, Delhi NCR",28.60611725,77.07875824
"B - 35, South City 2, Sector 49, Gurgaon, South City 2, Gurgaon, Delhi NCR",28.41772079,77.05281067
"Tilak Nagar, New Delhi - West, Delhi NCR",28.6387296,77.0941045
"Shaheed Budh Ram Singh Marg, Abhimanyu Appartment, Vasundhara Enclave, New Delhi, Vasundhara Enclave, New Delhi - East, Delhi NCR",28.60135623,77.31935835
"L-., Ahinsa Khand 1, Ghaziabad, Delhi NCR",28.640515,77.376783
"Mahagun Merabella Sector 79 Noida Uttar Pradesh 201301, Sector 79, Noida, Delhi NCR",28.58891296,77.32035828
"B113, ground floor, ardee city sector 52 Gurgaon, Sector 52, Gurgaon, Delhi NCR",28.44207,77.075517
"Ajnara Daffodil Sector 137 Noida, Sector 137, Noida, Delhi NCR",28.58905983,77.32012939
"Omicron 3, Greater Noida, Delhi NCR",28.474501,77.553187
"Indirapuram, Ghaziabad, Delhi NCR",28.6493479,77.3696259
"Bhopura, Ghaziabad, Delhi NCR",28.728555,77.337353
"221222 2nd Floor Pocket 1 Sector 25 Rohini Delhi 110085, Rohini, New Delhi - Rohini, Delhi NCR",28.63477325,77.04909515
"Raj Nagar Extension, Ghaziabad, Raj Nagar Extension, Ghaziabad, Delhi NCR",28.71109749,77.41739441
"Aditya celebrity Homes Sector 76Noida, Sector 76, Noida, Delhi NCR",28.575371,77.38437506
"sector 150, noida, Sector 150, Noida, Delhi NCR",28.42491581,77.486721
"G-50, 2nd Floor, East Of Kailash, New Delhi-110065, East Of Kailash, New Delhi - South, Delhi NCR",28.5573445,77.2508955
"Plot No. 25 I.P. Extn Delhi India, Indraprastha Extension, New Delhi - East, Delhi NCR",28.6232998,77.29979
"173 2nd Floor Sukhdev Vihar, new delhi, Sukhdev Vihar, New Delhi - South, Delhi NCR",28.5538385,77.2740986
"Jubilant Tower, Sector 143 B, Noida, Delhi NCR",28.495486,77.25219
"J 11 Saket New Delhi, J Block-Saket, New Delhi - South, Delhi NCR",28.49680138,77.22853851
"Paras Tierea sector 137 Noida, Sector 137, Noida, Delhi NCR",28.58884239,77.3203125
"Raj Nagar Extension, Ghaziabad, Delhi NCR",28.7040534,77.4373305
"B207-08., Sector 70A, Gurgaon, Delhi NCR",28.389346,77.018875
"West Guru Angad Nagar, Laxmi Nagar District Centre, New Delhi - East, Delhi NCR",28.6288811,77.2771884
"C-116 Ground floor front portion inderpuri new Delhi 110012, Inderpuri, New Delhi - West, Delhi NCR",28.62617874,77.14634705
"Indirapuram, Ghaziabad, Indirapuram, Ghaziabad, Delhi NCR",28.63527193,77.37039464
"South City 2, South City 2, Gurgaon, Delhi NCR",28.41772,77.05281
"dwarka, Sansad Vihar, New Delhi - Dwarka, Delhi NCR",28.60539767,77.05066566
"SG.1/705, Saya Gold Avenue Indrapuram., Indirapuram, Ghaziabad, Delhi NCR",28.63527193,77.37039464
"Paschim Vihar Block A3, New Delhi - West, Delhi NCR",28.672126,77.1042374
"F Block, Gangotri Apartment, Vikaspuri, New Delhi, Vikaspuri, New Delhi - West, Delhi NCR",28.64245116,77.06847649
"D block Kaushambi Ghaziabad, Kaushambi, Ghaziabad, Delhi NCR",28.6420559,77.323499
"Sector 89, Faridabad, Sector 89, Faridabad, Delhi NCR",28.4237892,77.3705248
"Indraprastha encalave, Sector 17 Dwarka, New Delhi - Dwarka, Delhi NCR",28.59210777,77.02819061
"Koyal Enclave, Bhopura, Ghaziabad, Delhi NCR",28.694223,77.4519
"Sector 89, Faridabad, Sector 89, Faridabad, Delhi NCR",28.41609628,77.3648097
"Omicron 1, Greater Noida, Delhi NCR",28.45858487,77.56091277
"Sector 82, Faridabad, Sector 82, Faridabad, Delhi NCR",28.3938425,77.3506549
"MG Road  Sector 28  Gurgaon, M G Road, Gurgaon, Delhi NCR",28.476479,77.073757
"J3/46B, 3rd Floor, Rajouri Garden, New Delhi - West, Delhi NCR",28.64334869,77.12055969
"D-49, sector- 08, Dwarka, Sector 8 Dwarka, New Delhi - Dwarka, Delhi NCR",28.5712739,77.07314
"Sector 9 Rohini, New Delhi - Rohini, Delhi NCR",28.71222715,77.12337811
"Pratap vihar Ghaziabad, Sector 12 Pratap Vihar, Ghaziabad, Delhi NCR",28.63622475,77.43367004
"Avenue 69 Sector 69 Gurgaon, Sector 69, Gurgaon, Delhi NCR",28.34565353,77.32646179
"26/44 second floor patel nagar New Delhi 110008, Patel Nagar West, New Delhi - West, Delhi NCR",28.65242958,77.1643219
"Sector 4, Gurgaon, Delhi NCR",28.47489357,77.00980377
"Bhgwati Garden Exctention Dwarka Mor New Delhi, Dwarka Mor, New Delhi - West, Delhi NCR",28.63481331,77.04915619
"Dwarka Sector 6, New Delhi, Sector 6 Dwarka, New Delhi - Dwarka, Delhi NCR",28.59344,77.065951
"D-24 B, Second Floor, Street No 4 Radheypuri, Krishna Nagar, Delhi 110091, Krishna Nagar, New Delhi - East, Delhi NCR",28.68640518,77.29970551
"Express Greens Sector 1, Vaishali, Ghaziabad, Delhi NCR, India., Vaishali, Ghaziabad, Delhi NCR",28.6441755,77.336519
"Sector 68, Gurgaon, Delhi NCR",28.386791,77.049466
"H-Tower, Greater Noida West, Greater Noida, Delhi NCR",28.605958,77.444512
"Mayur Vihar 1, New Delhi - East, Delhi NCR",28.68642998,77.29959106
"NH 24, Ghaziabad, NH 24, Ghaziabad, Delhi NCR",28.66288,77.47096
"Ground Floor Sector 2 Vaishali Ghaziabad, Vaishali, Ghaziabad, Delhi NCR",28.63624191,77.43365479
"78-R New Colony, New Colony, Gurgaon, Haryana, New Colony, Gurgaon, Delhi NCR",28.46552467,77.0171814
"Har1503., Indirapuram, Ghaziabad, Delhi NCR",28.382828,77.221297
"Plot 10/1, Block A, Vaibhav Khand, Indirapuram, Ghaziabad, Uttar Pradesh, Vaibhav Khand, Ghaziabad, Delhi NCR",28.63527193,77.37039464
"P 1204., Raj Nagar Extension, Ghaziabad, Delhi NCR",28.708744,77.417028
"DDA Pocket 1, Sector 7 Dwarka, New Delhi - Dwarka, Delhi NCR",28.600675,77.03042
"Shree Radhey Apartment  Near mangalam store Ward No-03, Mehrauli, New Delhi-110030, Mehrauli, New Delhi - South, Delhi NCR",28.5201861,77.179158
"Siddhartha Vihar, Ghaziabad, Siddhartha Vihar, Ghaziabad, Delhi NCR",28.646286,77.406051
"Block F, Beta II, Rampur Jagir, Greater Noida., Beta 2, Greater Noida, Delhi NCR",28.48515,77.51401
"Sector 37D, Gurgaon., Sector 37D, Gurgaon, Delhi NCR",28.45251307,76.97627035
"Sector 76, Noida, Sector 76, Noida, Delhi NCR",28.56541475,77.383196
"Sector 137 Noida, Sector 137, Noida, Delhi NCR",28.5081749,77.40982056
"Sewak Park, Dwarka More, Uttam Nagar, New Delhi, Sewak Park, New Delhi - Dwarka, Delhi NCR",28.50094795,77.23358154
"Sector 118, Sector 118, Noida, Delhi NCR",28.58416502,77.40649171
"Prateek wisteria Sector 77Noida, Sector 77, Noida, Delhi NCR",28.57153784,77.38962228
"house number 218 HUDA Plots Gate 14 Yoga Park sector 56 gurgaon, Sector 56 Block E, Gurgaon, Delhi NCR",28.49746704,77.02713013
"Krishna Nagar-Safdarjung Enclave, New Delhi - South, Delhi NCR",28.56375122,77.18978882
"Trinity Homes, Ansal Esencia API, Block F, Sector 67, Gurgram, Haryana, Sector 67, Gurgaon, Delhi NCR",28.38659477,77.06057739
"C block, Mahavir Enclave Part 3, New Delhi - Dwarka, Delhi NCR",28.606044,77.070474
"Block C, Sushant Lok 2, Gurgaon, Delhi NCR",28.42304993,77.08740997
"DLF Dilshad extension 2 Ghaziabad, DLF Dilshad Extention II, Ghaziabad, Delhi NCR",28.63630486,77.43389893
"Al/277 2nd floor with roof right, Sushant Lok 2, Gurgaon, Delhi NCR",28.42304993,77.08740997
"Sector 79, Gurgaon, Sector 79, Gurgaon, Delhi NCR",28.35911846,76.975628
"first floor orchid island sector 51 gurgaon, Sector 51, Gurgaon, Delhi NCR",28.429071,77.068974
"G T Road, Ghaziabad, G T Road, Ghaziabad, Delhi NCR",28.679009,77.34929514
"Raj Nagar Extension, Ghaziabad, Delhi NCR",28.70451529,77.41924553
"Vasundhara Enclave, New Delhi - East, Delhi NCR",28.59821938,77.31182666
"368 subhash Nagar., Subhash Nagar, New Delhi - West, Delhi NCR",28.7427845,77.13809204
"DLF City Phase 1, DLF City Phase 2, Gurgaon, Delhi NCR",28.43108,77.055414
"Dwarka Sector 23, New Delhi, Sector 23 Dwarka, New Delhi - Dwarka, Delhi NCR",28.56329062,77.05067414
"Homes Sai Ram Apartments, Sector 28 Dwarka, New Delhi - Dwarka, Delhi NCR",28.63474274,77.04914856
"gali no 3, Mahavir Enclave Part 1, New Delhi - Dwarka, Delhi NCR",28.59803581,77.07652283
"Flat No. G4 Building No . J1/13  Gupta Coloney, Khirki Extension Near Malviya Nagar New Delhi 110017, Khirki extension, New Delhi - South, Delhi NCR",28.49677086,77.22854614
"Sector 77, Gurgaon, Sector 77, Gurgaon, Delhi NCR",28.387426,76.979751
"Sector 70A, Gurgaon, Delhi NCR",28.385432,77.017122
"Migsun Ultimo Greater Noida, Omicron 3, Greater Noida, Delhi NCR",28.474501,77.553187
"Sector 30 gurgaon, Sector 30, Gurgaon, Delhi NCR",28.46195602,77.05679321
"Noida Extension, Greater Noida, Delhi NCR",28.605958,77.444512
"6, Vaibhav Khand, Indirapuram, Indirapuram, Ghaziabad, Delhi NCR",28.641073,77.368012
"Sector 133, Noida, Delhi NCR",28.50512302,77.371256
"Eldeco green meadows, Sector-Pi, Greater Noida, Delhi NCR",28.47064511,77.53731908
"Pocket-C, Block-8, Sector-17, Near Axis Bank, Dwarka, New Delhi, Dwarka, New Delhi - Dwarka, Delhi NCR",28.63479233,77.04915619
"Omicron I, 130 Meter Road, Greater Noida, Uttar Pradesh 201310, Omicron 1, Greater Noida, Delhi NCR",28.46267033,77.55830252
"Noida Extension, Noida, Delhi NCR",28.605958,77.444512
"Sector 28, Gurgaon, Delhi NCR",28.4747467,77.08303833
"Sector 78, Noida, Sector 78, Noida, Delhi NCR",28.563989,77.388607
"26/165 3rd Floor with Terrace 125 sq. yds., Vikram Vihar, New Delhi - South, Delhi NCR",28.564363,77.2368819
"601, GPL Eden Height, Sector 70, Gurgaon, Delhi NCR",28.3930662,77.022442
"A2 ff., Sector 49, Gurgaon, Delhi NCR",28.412766,77.052239
"Noida Extension, Noida, Delhi NCR",28.605958,77.444512
"Green Home CGHS Plot No 4 Sector 52 Gurgaon, Sector 52, Gurgaon, Delhi NCR",28.438262,77.0793005
"Ratan Park, New Delhi - West, Delhi NCR",28.654545,77.1337505
"C- 85., Sector 39 Block C, Noida, Delhi NCR",28.56596375,77.35002899
"Puri Diplomatic Green, C2-902, Phase I, Sector 111, Gurgaon, Sector 111, Gurgaon, Delhi NCR",28.5194705,77.027282
"Yamuna Expressway, Greater Noida, Yamuna Expressway, Greater Noida, Delhi NCR",28.32519614,77.535202
"Greater Noida West, Greater Noida., Greater Noida West, Greater Noida, Delhi NCR",28.606945,77.45557857
"3997., Aravali Vihar, Faridabad, Delhi NCR",28.3964215,77.2714966
"Sector 71, Gurgaon, Delhi NCR",28.4087675,77.0228914
"156., Chittaranjan Park, New Delhi - South, Delhi NCR",28.53787231,77.24923706
"Sector 82, Sector Road, Sector 82, Gurgaon, Delhi NCR",28.395841,76.962664
"Villa no281 panchsheel green2 Noida Extension, Noida Extension, Noida, Delhi NCR",28.5613842,77.31790161
"Vasundhara Ghaziabad, Sector 5 Vasundhara, Ghaziabad, Delhi NCR",28.63619423,77.43363953
"Wave City, Ghaziabad, Delhi NCR",28.664371,77.488789
"F-6, Alokvihar 2., Sector 50, Noida, Delhi NCR",28.57407242,77.37162063
"C Block Top Floor, Sector 82, Faridabad, Delhi NCR",28.39704757,77.35685016
"Nirvana Country, Gurgaon, Delhi NCR",28.407882,77.060044
"Sector 45, Gurgaon, Delhi NCR",28.4446575,77.0670365
"Q 086., Sector 143, Noida, Delhi NCR",28.502597,77.428742
"Sector 79, Noida, Delhi NCR",28.56458645,77.39876351
"neqr arjungarh metro station, Aya Nagar, New Delhi - South, Delhi NCR",28.47069168,77.12744904
"Shalimar garden extension Ghaziabad, Shalimar Garden Extension 2, Ghaziabad, Delhi NCR",28.6356144,77.43213654
"Phase 2, Industrial Area, Sector 62, Noida, Uttar Pradesh, Sector 62, Noida, Delhi NCR",28.61602986,77.37121442
"Mayur Vihar 1, New Delhi - East, Delhi NCR",28.61130125,77.28889165
"Sector 137, Noida, Sector 137, Noida, Delhi NCR",28.51183419,77.41127367
"Sikka Karnam Greens sector 143B Noida, Sector 143 B, Noida, Delhi NCR",28.495486,77.25219
"D block, Ardee City, Ardee City, Gurgaon, Delhi NCR",28.44207,77.075517
"Bhopura Ghaziabad, Bhopura, Ghaziabad, Delhi NCR",28.72645304,77.33733853
"A1701., Sector 92, Gurgaon, Delhi NCR",28.4096109,76.9141943
"Greater Noida West, Greater Noida, Delhi NCR",28.597324,77.441425
"House no.17, Block 3, Charmwood Village, Faridabad, Delhi NCR",28.4923586,77.2894914
"Sector 107, Gurgaon, Sector 107, Gurgaon, Delhi NCR",28.5054485,76.9718027
"D4/22, vashist park, new delhi, 110046, Vashisth Park, New Delhi - West, Delhi NCR",28.63474464,77.0491333
"C02 Spaze Privy Sector 72 Gurgaon, Sector 72, Gurgaon, Delhi NCR",28.41011314,77.0334305
"House No 298 Sec 7A Faridabad, Sector 7A, Faridabad, Delhi NCR",28.34584618,77.32615662
"Sultanpur, Sector 128, Noida, Uttar Pradesh 201304, Sector 129, Noida, Delhi NCR",28.524543,77.364765
"Sector 104, Gurgaon, Sector 104, Gurgaon, Delhi NCR",28.48438996,77.00030461
"Najafgarh, New Delhi - West, Delhi NCR",28.68643951,77.29956818
"paras dews  sector106on dwarka expressway gurgaon, Sector 106, Gurgaon, Delhi NCR",28.499602,76.999946
"Sector 89, Gurgaon, Sector 89, Gurgaon, Delhi NCR",28.424505,76.9418971
"Sainik Nagar, New Delhi - West, Delhi NCR",28.63474655,77.0491333
"Techzone IV Greater NoidaWest, Greater Noida, Delhi NCR",28.59957314,77.45030212
"Sector 70, Gurgaon, Sector 70, Gurgaon, Delhi NCR",28.39568075,77.02979199
"Supertech eccociti Sector 137Noida, Sector 137, Noida, Delhi NCR",28.51183419,77.41127367
"Ajnara Daffodil Sector 137 Noida, Sector 137, Noida, Delhi NCR",28.508273,77.40897616
"Sector 48, Gurgaon, Sector 48, Gurgaon, Delhi NCR",28.41963169,77.1051974
"West Vinod Nagar, New Delhi - East, Delhi NCR",28.62456322,77.30006409
"Flat no. 801 in block D2B at 8th Floor in Pocket 2 Sector 18 B Dwarka Phase -2, New Delhi, Delhi NCR",28.63474083,77.0491333
"Awho gurjinder vihar., Chi 2, Greater Noida, Delhi NCR",28.4422095,77.5103249
"REHAZA VEDANTHA SEC 108 Gurgaon, Sector 108, Gurgaon, Delhi NCR",28.512136,76.986899
"Greater Noida West, Greater Noida, Delhi NCR",28.603156,77.450278
"Siddhartha Vihar, Ghaziabad, Delhi NCR",28.644056,77.393639
"H0805, Raheja Atharva, Sec-109, Dwarka Expressway Gurugram, Dwarka Expressway, Gurgaon, Delhi NCR",28.49745941,77.02709198
"GH - 03C, Sector 144, Noida, Uttar Pradesh 201306, Sector 144, Noida, Delhi NCR",28.496607,77.439827
"Mahagun Moderne Sector 78 Noida, Sector 78, Noida, Delhi NCR",28.562957,77.38698789
"G T Road, Ghaziabad, Delhi NCR",28.6761798,77.39628201
"T1/705., Sector 150, Noida, Delhi NCR",28.420393,77.483477
"Sector 137, Noida, Delhi NCR",28.505584,77.410762
"NH 58 -Ghaziabad, NH 58, Ghaziabad, Delhi NCR",28.698376,77.426802
"omicorn 3, Omicron, Greater Noida, Delhi NCR",28.4751606,77.55141449
"Hari Nagar, New Delhi - West, Delhi NCR",28.61970138,77.11162213
"Sunworld vanalika Sector 107Noida, Sector 107, Noida, Delhi NCR",28.55000582,77.37582016
"Crossings Republik, Ghaziabad, Delhi NCR",28.62601594,77.43588182
"Sector 75, Noida, Delhi NCR",28.574226,77.379658
"Sector 77, Noida, Delhi NCR",28.57153784,77.38962228
"Sector 77, Gurgaon, Delhi NCR",28.387227,76.980183
"Chudi wali gali mandir wali gali near metro pillar 215., Ranjeet Nagar, New Delhi - West, Delhi NCR",28.7428112,77.13806915
"Kabirdas Marg, Rohit Kunj, Shakurpur Village, Pitam Pura, Delhi, 110034, Pitampura, New Delhi - West, Delhi NCR",28.69016116,77.14072438
"Bestech Parkview Ananda Sector 81, grugaon, Sector 81, Gurgaon, Delhi NCR",28.39124238,76.9528535
"236, GF & FF, Krishna Nagar, Ram Nagar, Delhi 110051, Krishna Nagar Block H, New Delhi - East, Delhi NCR",28.6572035,77.2843935
"D3-203A, 3rd floor back side, Mahavir Enclave, New Delhi - Dwarka, Delhi NCR",28.63486099,77.04925537
"Sector 3 Rajendra Nagar, Ghaziabad, Delhi NCR",28.68898201,77.36444855
"2021 Sector 28, Mathura Road, Faridabad, Delhi NCR",28.433361,77.309171
"Greater Noida West, Noida, Delhi NCR",28.605958,77.444512
"Raj Nagar Extension Ghaziabad, Raj Nagar Extension, Ghaziabad, Delhi NCR",28.7040534,77.4373305
"Sector 107, Noida, Sector 107, Noida, Delhi NCR",28.54291259,77.37203149
"Sector 16 Rohini, New Delhi - Rohini, Delhi NCR",28.7383728,77.12914276
"Sector 56, Gurgaon, Delhi NCR",28.42815193,77.10088933
"Sushant Lok 1, Gurgaon, Delhi NCR",28.454191,77.0837996
"Chi 4, Greater Noida, Chi 4, Greater Noida, Delhi NCR",28.43294945,77.517838
"Mayur Vihar 1, New Delhi - East, Delhi NCR",28.6053661,77.2954371
"Niti khand 1, Indirapuram, Ghaziabad, Delhi NCR",28.6493479,77.3696259
"Sector 88, Faridabad, Delhi NCR",28.421008,77.3559275
"Palm Residency, Sector-75 Faridabad, Sector 75, Faridabad, Delhi NCR",28.37161658,77.35101791
"Antriksh Forest Sector  77 Noida, Sector 77, Noida, Delhi NCR",28.5680204,77.3890864
"Sector 70 Gurgaon, Sector 70, Gurgaon, Delhi NCR",28.39568075,77.02979199
"DDA SEC19B DWARKA NEW DELHI, Sector 19 Dwarka, New Delhi - Dwarka, Delhi NCR",28.5769715,77.0477254
"B-23., Shivalik Colony, New Delhi - South, Delhi NCR",28.53441811,77.2081604
"Indirapuram Ghaziabad, Indirapuram, Ghaziabad, Delhi NCR",28.63340569,77.43122101
"Sector 37C, Gurgaon, Sector 37C, Gurgaon, Delhi NCR",28.44926,76.98476024
"Sector 137, Noida, Delhi NCR",28.509118,77.413416
"Sector 36, Gurgaon, Delhi NCR",28.4183197,76.98768616
"Gurgaon, Dharam Colony Block E, Gurgaon, Delhi NCR",28.50288773,77.03587341
"416 Shaktikhand 4 ground floor, Indirapuram, Ghaziabad, Delhi NCR, Indirapuram, Ghaziabad, Delhi NCR",28.6493479,77.3696259
"I86 Sector 41, Sector 41, Noida, Delhi NCR",28.5890255,77.32013702
"Tuntex Tower, Sector 86, Faridabad, Delhi NCR",28.40436848,77.33607703
"Panchachuli Apartments, Sector 61, Noida, Uttar Pradesh, Sector 61, Noida, Delhi NCR",28.59646905,77.367227
"PH 3 OC15 orange county ahinsa khand 1 Indirapuram, Indirapuram, Ghaziabad, Delhi NCR",28.64191287,77.36142737
"Nt 10west uttam nagar, Uttam Nagar, New Delhi - West, Delhi NCR",28.63477325,77.04914093
"9., Sector 143 B, Noida, Delhi NCR",28.4959545,77.4233
"Sector 104, Gurgaon, Delhi NCR",28.482277,76.99199526
"Sector 150, Noida, Sector 150, Noida, Delhi NCR",28.561989,77.39837
"Siddhartha Vihar, Ghaziabad, Delhi NCR",28.656401,77.405491
"Sector 107, Noida, Delhi NCR",28.55000582,77.37582016
"Sector 109, Gurgaon, Delhi NCR",28.51083403,77.003159
"Vaishali, Ghaziabad, Delhi NCR",28.645769,77.38511
"Sector 150, Noida, Delhi NCR",28.417942,77.487508
"Siddhartha Vihar, Ghaziabad, Delhi NCR",28.65662,77.4048
"Sector 90, Gurgaon, Delhi NCR",28.407361,76.93426176
"Sector 81, Gurgaon, Delhi NCR",28.3884743,76.9470835
"Indirapuram, Ghaziabad, Delhi NCR",28.6493479,77.3696259
"Indirapuram, Ghaziabad, Delhi NCR",28.6493479,77.3696259
"Sector 81, Gurgaon, Delhi NCR",28.3884743,76.9470835
"Chi 5, Greater Noida, Delhi NCR",28.43019427,77.50613308
"Siddhartha Vihar, Ghaziabad, Delhi NCR",28.6390982,77.412377
"Sector 78, Noida, Delhi NCR",28.56275245,77.38241708
"Sector 99, Gurgaon, Delhi NCR",28.40178968,77.04549474
"Sector 121, Noida, Delhi NCR",28.603194,77.402604
"Sector 81, Gurgaon, Delhi NCR",28.39284,76.951139
"Suraj Kund, Faridabad, Delhi NCR",28.469312,77.293483
"Sector 108, Gurgaon, Delhi NCR",28.513929,76.988788
"Vasundhara sector 15 ghaziabad., Sector 15 Vasundhara, Ghaziabad, Delhi NCR",28.6524441,77.3605216
"NH 24, Ghaziabad, Delhi NCR",28.638572,77.4308515
"Sector 2, Greater Noida, Delhi NCR",28.5814311,77.4528192
"dlf phase  2, DLF City Phase 2, Gurgaon, Delhi NCR",28.48360443,77.08733368
"noida sec-16, Greater Noida West, Noida, Delhi NCR",28.605958,77.444512
"M-1802., Sector 45, Noida, Delhi NCR",28.548787,77.346032
"Indraprastha Colony, Faridabad, Delhi NCR",28.4524215,77.317156
"Sector 38, Gurgaon, Delhi NCR",28.43741226,77.04144287
"Sector 37C, Gurgaon, Delhi NCR",28.449908,76.9876925
"Sector-77, Noida., Sector 77, Noida, Delhi NCR",28.57204228,77.39106873
"Sector 81, gurugram, haryana., Sector 81A, Gurgaon, Delhi NCR",28.389485,76.954056
"Sector 62, Noida, Delhi NCR",28.621714,77.369341
"Sector 70, Gurgaon Haryana, Sector 70, Gurgaon, Delhi NCR",28.394708,77.01856
"Sector 53, Noida, Delhi NCR",28.5905383,77.35981
"Malibu Town, Gurgaon, Delhi NCR",28.42242813,77.04646301
"Sector 2 Rajendra Nagar, Ghaziabad, Delhi NCR",28.687614,77.351924
"Greater Noida West, Greater Noida, Delhi NCR",28.605958,77.444512
"Sector 83, Gurgaon, Sector 83, Gurgaon, Delhi NCR",28.395989,76.973879
"DLF Ankur Vihar, Ghaziabad, Delhi NCR",28.7379052,77.2673675
"Shakti Khand 2 Indirapuram Ghaziabad, Indirapuram, Ghaziabad, Delhi NCR",28.64711761,77.37123108
"J1170 Rajouri garden, Rajouri Garden Extension, New Delhi - West, Delhi NCR",28.63360023,77.09877777
"Pul Prahlad Pur, New Delhi - South, Delhi NCR",28.49752998,77.2905426
"pilot no E 24 salimar garden ext 2 Ghaziyabad, Shalimar Garden Extension 2, Ghaziabad, Delhi NCR",28.68579961,77.34144238
"House no B 173 Mahindra enclave shashtri nagar Ghaziabad, Mahindra Enclave, Ghaziabad, Delhi NCR",28.67605019,77.45023346
"401., Gijhore, Noida, Delhi NCR",28.5903965,77.3626
"Raj Nagar Extension, Ghaziabad, Delhi NCR",28.70213944,77.40712586
"Shanti Nagar, Shanti Nagar, Gurgaon, Delhi NCR",28.45508766,77.01211548
"Sector 107, Noida, Sector 107, Noida, Delhi NCR",28.5466685,77.37519508
"Adarsh Nagar, Gurgaon, Delhi NCR",28.46537781,77.02996063
"Shipra Suncity, Ghaziabad, Delhi NCR",28.6358105,77.3739109
"Sector 68, Gurgaon, Delhi NCR",28.474314,76.98599
"Sahibabad, Ghaziabad, Delhi NCR",28.6644882,77.3474938
"Raj Nagar Extension, Ghaziabad, Delhi NCR",28.70019204,77.427474
"Raj Nagar Extension, Ghaziabad, Delhi NCR",28.7040534,77.4373305
"Raj Nagar Extension, Ghaziabad, Delhi NCR",28.7040534,77.4373305
"Sector 4, Greater Noida, Delhi NCR",28.6109351,77.4294948
"C-2-799., Palam Vihar, Gurgaon, Delhi NCR",28.50042532,77.00773017
"Flat No 177, Second Floor with Terrace, Shakti Khand 3, Indirapuram, Shakti Khand 3, Ghaziabad, Delhi NCR",28.6500637,77.3637503
"Dayanand Colony, Gurgaon, Delhi NCR",28.472907,77.0210785
"Raj Nagar Extension, Ghaziabad, Delhi NCR",28.72199885,77.447746
"Sector 100, Noida, Sector 100, Noida, Delhi NCR",28.54341218,77.367853
"Sector 2 Sohna, Gurgaon, Delhi NCR",28.27197877,77.06665731
"Kaushambi, Ghaziabad, Delhi NCR",28.6420559,77.323499
"Ghaziabad, Shakti Khand 3, Ghaziabad, Delhi NCR",28.65005875,77.36593628
"Gyan Khand 1 Indirapuram Ghaziabad, Indirapuram, Ghaziabad, Delhi NCR",28.64032555,77.35135651
"B block, Freedom Fighters Enclave, New Delhi - South, Delhi NCR",28.51122455,77.20272709
"Chittaranjan Park, New Delhi - South, Delhi NCR",28.53787231,77.24923706
"sector 3 vaishali, skytech magadh society, Vaishali, Ghaziabad, Delhi NCR",28.64027425,77.34332119
"Pratap vihar ghaziabad, Vijay Nagar Colony, Ghaziabad, Delhi NCR",28.64338493,77.42422485
"Brand new stilt lift gated block, DLF City Phase 2, Gurgaon, Delhi NCR",28.48279381,77.08290863
"Indirapuram, Ghaziabad, Delhi NCR",28.6493479,77.3696259
"Plot no 36, Flat no. S-3, Sector 5 Rajendra Nagar, Ghaziabad, Delhi NCR",28.6809994,77.356998
"Sector 78, Noida, Sector 78, Noida, Delhi NCR",28.56118696,77.3865692
"B-6, 2006., Amrapali Dream Valley, Greater Noida, Delhi NCR",28.59680748,77.4429245
"Yamuna Expressway, Greater Noida, Delhi NCR",28.3452278,77.5161987
"Greater Noida West, Noida, Delhi NCR",28.60595894,77.44451141
"Raj Nagar Extension, Ghaziabad, Raj Nagar Extension, Ghaziabad, Delhi NCR",28.703725,77.415456
"Noida-Greater Noida Link Rd, Sector-16B, Bhangel, Greater Noida, Uttar Pradesh, Sector 16, Greater Noida, Delhi NCR",28.6113,77.4454
"Yamuna Expressway, Greater Noida, Delhi NCR",28.43346417,77.50601239
"Sector 90, Gurgaon, Delhi NCR",28.405868,76.929915
"Noida Extension, Greater Noida, Delhi NCR",28.604884,77.425914
"sectorc15a noida, Sector 15A, Noida, Delhi NCR",28.57641411,77.30426025
"Yamuna Expressway, Greater Noida, Delhi NCR",28.309616,77.55859
"Raj Nagar Extension, Ghaziabad, Delhi NCR",28.699069,77.43082211
"Nirvana Country Sector 50 Gurugram, Nirvana Country, Gurgaon, Delhi NCR",28.414627,77.060127
"Ahinsa Khand 2 Indirapuram Ghaziabad Uttar Pradesh, Ahinsa Khand 2, Ghaziabad, Delhi NCR",28.63407326,77.43172455
"Govindpuram, Ghaziabad, Delhi NCR",28.6896453,77.4933302
"Sector 45Noida Amrapali sapphire, Sector 45, Noida, Delhi NCR",28.548787,77.346032
"Vasant Kunj, New Delhi, Sector B Vasant Kunj, New Delhi - South, Delhi NCR",28.54743576,77.24966431
"501/2, Indirapuram, Ghaziabad, Delhi NCR",28.63905121,77.37947329
"Sector 21, Gurgaon, Delhi NCR",28.513566,77.0733305
"3282, ATS Dolce, Zeta-1, Greater Noida, Zeta 1, Greater Noida, Delhi NCR",28.496754,77.52229495
"Shalimar Garden Extension 1, Ghaziabad, Delhi NCR",28.6900486,77.3405361
"DLF City Phase 3, Gurgaon, Delhi NCR",28.494107,77.1033555
"sadar bazaar delhi cant. 110010, Delhi Cantonment, New Delhi - South, Delhi NCR",28.63479424,77.04908752
"Abhay Khand, Ghaziabad, Delhi NCR",28.6370524,77.344619
"Flora enclave., Gangapuram, Ghaziabad, Delhi NCR",28.67755318,77.4874115
"Sector 45, Noida, Sector 45, Noida, Delhi NCR",28.54653581,77.35266846
"177., Arjun Nagar, New Delhi - South, Delhi NCR",28.5604951,77.1986314
"64 Daulat Pura, Rahul Vihar Near bhatiya more, Ghaziabad, Daulatpura, Ghaziabad, Delhi NCR",28.65050507,77.43795776
"Uttam Nagar, New Delhi - West, Delhi NCR",28.6212883,77.05307007
"Gaur city 2, Noida Extension, Noida, Delhi NCR",28.61994868,77.42276713
"Uttam Nagar West, New Delhi - West, Delhi NCR",28.62176704,77.05584717
"Dwarka Mor, New Delhi - West, Delhi NCR",28.6193161,77.03326416
"SECTOR - 109, GURUGRAM, HARYANA, Sector 109, Gurgaon, Delhi NCR",28.51083403,77.003159
"14th Avenue, Noida, Delhi NCR",28.53235054,77.4076004
"P-11 Block Sector-48, Sector 48, Gurgaon, Delhi NCR",28.41048693,77.03843246
"Sohna Road, Gurgaon, Delhi NCR",28.416558,77.022441
"G T Road, Ghaziabad, Delhi NCR",28.679009,77.34929514
"Kaushambi, Ghaziabad, Delhi NCR",28.645141,77.323027
"Sector 21 Surya Vihar-, Gurgaon, Delhi NCR",28.51767159,77.07597351
"Krishna Colony, Gurgaon, Delhi NCR",28.466155,77.010758
"A-64 First Floor, Ramesh Nagar, New Delhi - West, Delhi NCR",28.65317535,77.1350708
"Sector 78, Noida, Delhi NCR",28.56118696,77.3865692
"Indirapuram, Ghaziabad, Delhi NCR",28.63509489,77.3635358
"Sec 168, Sector 168, Noida, Delhi NCR",28.49728592,77.40909126
"Arihant ambience crossing republic ghaziabad, NH 24, Ghaziabad, Delhi NCR",28.62601594,77.43588182
"Surajpur, Greater Noida, Delhi NCR",28.5151375,77.495836
"Sector 76, Faridabad, Delhi NCR",28.369786,77.358284
"Sector 90, Gurgaon., Sector 90, Gurgaon, Delhi NCR",28.406891,76.930126
"Flat no. 002, 1st floor, chandra Park, Dwarka near Vegas Mall, Dwarka Mor, New Delhi - West, Delhi NCR",28.619316,77.033262
"Sector 57, Gurgaon, Delhi NCR",28.417357,77.076141
"Omicron 3, Greater Noida, Delhi NCR",28.474501,77.553187
"Govindpuram, Ghaziabad, Delhi NCR",28.687809,77.478751
"Sector 70, Noida, Delhi NCR",28.594127,77.38197233
"x123, Sushant Lok 1, Gurgaon, Delhi NCR",28.454191,77.0837996
"flat no. 102, plot no. 102, Gyan Khand 1, Ghaziabad, Delhi NCR",28.64177895,77.35029602
"604., Raj Nagar Extension, Ghaziabad, Delhi NCR",28.7032438,77.42307031
"Ptrakar Vihar, Nyay Khand-|, Indirapuram, Ghaziabad. Pin-201014., Indirapuram, Ghaziabad, Delhi NCR",28.634123,77.353146
"LBS Rd, behind Dena Bank, Kashi Nagar, Valmik Nagar, Bhandup West, Mumbai, Maharashtra, Neeti Khand 2, Ghaziabad, Delhi NCR",28.64305305,77.34683228
"Sector 89, Faridabad, Sector 89, Faridabad, Delhi NCR",28.4237892,77.3705248
"Aditya World City, NH-24, Mehrauli, NH 24, Ghaziabad, Delhi NCR",28.658647,77.4757
"Noida Extension, Greater Noida, Delhi NCR",28.604884,77.425914
"Gaur City 5th Avenue, Noida Extension, Noida, Noida Extension, Noida, Delhi NCR",28.614181,77.427713
"Zeta 1, Greater Noida, Delhi NCR",28.496754,77.52229495
"Sector 5 Rajendra Nagar, Ghaziabad, Delhi NCR",28.6809994,77.356998
"11th avenue gaur city 2 greater noida, C-16, Greater Noida, Delhi NCR",28.45358086,77.55622101
"Vikaspuri, New Delhi - West, Delhi NCR",28.6403661,77.06689512
"T08 1214., Sector 168, Noida, Delhi NCR",28.49629327,77.40851995
"Sector 37C, Gurgaon, Delhi NCR",28.449908,76.9876925
"Sector 65, Gurgaon, Delhi NCR",28.408448,77.068574
"902, tower 1, Gurgaon - Faridabad Road, Gurgaon, Delhi NCR",28.436305,77.13605
"Shakti khand 4 indirapuram ghaziabad, Indirapuram, Ghaziabad, Delhi NCR",28.64232063,77.42423248
"Raj Nagar Extension, Ghaziabad, Delhi NCR",28.70217,77.430308
"Indraprastha apartments -1 Indraprastha colony sector 30-33 Faridabad, Sector 30, Faridabad, Delhi NCR",28.45336509,77.31877958
"Indirapuram, Ghaziabad, Delhi NCR",28.644894,77.35968
"110, Ahinsa Khand 2, Ghaziabad, Delhi NCR",28.646093,77.384003
"H706 Ajnara sector 16B greater noida west (Near Urjatech chowk), Greater Noida West, Greater Noida, Delhi NCR",28.606945,77.45557857
"Siddhartha Vihar, Ghaziabad, Delhi NCR",28.646286,77.406051
"Sector 88, Faridabad, Delhi NCR",28.41669089,77.35491947
"Raj Nagar Extension, Ghaziabad, Delhi NCR",28.7040534,77.4373305
"NH 24, Ghaziabad, Delhi NCR",28.654612,77.486901
"Sector 85, Faridabad, Delhi NCR",28.41101102,77.35461457
"Raj Nagar Extension, Ghaziabad, Delhi NCR",28.7040534,77.4373305
"Mahagunpuram, Ghaziabad, Delhi NCR",28.666056,77.479854
"Lal Kuan, Ghaziabad, Delhi NCR",28.65010571,77.4870273
"Crossings Republik, Ghaziabad, Delhi NCR",28.635074,77.4316636
"Nand Nagri, New Delhi - East, Delhi NCR",28.6945591,77.30852509
"Indraprastha Yojna, Bhopura, Ghaziabad, Bhopura, Ghaziabad, Delhi NCR",28.72645304,77.33733853
"Sector 28 Dwarka, New Delhi - Dwarka, Delhi NCR",28.5449014,77.0355014
"Sector 85, Gurugram, Haryana, Sector 85, Gurgaon, Delhi NCR",28.409389,76.951659
"Sector 23A, Gurgaon, Delhi NCR",28.5063896,77.0475355
"Pratap Vihar, Ghaziabad, Delhi NCR",28.6499845,77.4065455
"Ahinsa Khand 2, Ghaziabad, Delhi NCR",28.6428477,77.3826371
"Sector 55, Noida, Delhi NCR",28.6041506,77.3481054
"Sahibabad, Ghaziabad, Delhi NCR",28.6644882,77.3474938
"A/91, Raju Park, Devli Road, Khanpur, Devli, New Delhi - South, Delhi NCR",28.4957943,77.23671722
"2002 iris., Sector 137, Noida, Delhi NCR",28.50920801,77.40662554
"Paras Tierea, Sector 137, Noida, Delhi NCR",28.505584,77.410762
"Geeta Colony, New Delhi - East, Delhi NCR",28.6510595,77.2706136
"Hapur Road, Ghaziabad, Delhi NCR",28.6748094,77.4596782
"Sector 120, Noida, Delhi NCR",28.5859361,77.3962895
"Noida Extension, Greater Noida, Delhi NCR",28.605958,77.444512
"Sector 106, Gurgaon, Delhi NCR",28.4998859,77.000302
"Sector 13 Dwarka, New Delhi - Dwarka, Delhi NCR",28.5948316,77.03211237
"habitech panchatatva, Noida Extension, Noida, Delhi NCR",28.592372,77.453675
"Mianwali Colony, Gurgaon, Delhi NCR",28.46699142,77.0293045
"Apartment no.303, Vaishali, Ghaziabad, Delhi NCR",28.6494838,77.340322
"NHPC Employess Hillgrow CGHS GH- 5 Part -3 Sec 21 C Faridabad Pin code- 121002, Sector 21, Faridabad, Delhi NCR",28.43054291,77.29062691
"Sector 76, Noida, Delhi NCR",28.569883,77.382497
"Zeta 1, Greater Noida, Delhi NCR",28.5028971,77.526218
"rattan vihar rajendra park, Rajendra Park, Gurgaon, Delhi NCR",28.4938375,77.0071875
"Taj Expressway, Noida, Delhi NCR",28.4324446,77.5079173
"B 78., Ashoka Enclave Part 2, Faridabad, Delhi NCR",28.480196,77.31130219
"Plot No 299, Flat No G 4, Vaishali, Ghaziabad, Delhi NCR",28.6876653,77.3307305
"Tower D 1801 futec gateway sector 75 noida, Sector 75, Noida, Delhi NCR",28.60016441,77.44549561
"Gandhi Nagar, Ghaziabad, Delhi NCR",28.6547416,77.437137
"DLF City Phase 2, Gurgaon, Delhi NCR",28.48860741,77.08190918
"Sector 23 Rohini, New Delhi - Rohini, Delhi NCR",28.72089386,77.08010864
"Sector 79, Gurgaon, Delhi NCR",28.37423557,76.95241631
"F 1219., NH 24, Ghaziabad, Delhi NCR",28.683082,77.50921
"C-1/470, 2nd floor., Palam Vihar Pocket C, Gurgaon, Delhi NCR",28.505053,77.029367
"plot no 149 pocket 9 sec 21 rohini main road, Sector 21 Rohini, New Delhi - Rohini, Delhi NCR",28.71412659,77.06764221
"Uttam Nagar, New Delhi - West, Delhi NCR",28.6212874,77.0530735
"Shree Radhey Appartment 602/B1 Ward no 3, Mehrauli, New Delhi - South, Delhi NCR",28.5201861,77.179158
"Sector 2, Greater Noida, Delhi NCR",28.579593,77.445197
"Sector 92, Gurgaon., Sector 92, Gurgaon, Delhi NCR",28.417213,76.921636
"Sector 10A, Gurgaon, Delhi NCR",28.4446244,77.009305
"Greater Noida West, Greater Noida, Delhi NCR",28.51451221,77.52203509
"T-1, 902., Raj Nagar Extension, Ghaziabad, Delhi NCR",28.705425,77.433193
"Ahinsa Khand 2, Indirapuram, Ghaziabad, Uttar Pradesh, Ahinsa Khand 2, Ghaziabad, Delhi NCR",28.64045562,77.380211
"905 summit tower, Sector 86, Faridabad, Delhi NCR",28.40436848,77.33607703
"RZ D/59, Street No.5, Mahavir Enclave Part 1, New Delhi - Dwarka, Delhi NCR",28.5980365,77.0765245
"Sector 76, Noida, Sector 76, Noida, Delhi NCR",28.56541475,77.383196
"Sector 79, Noida, Delhi NCR",28.563031,77.394037
"Mahagun Mascot, Crossings Republik., Crossings Republik, Ghaziabad, Delhi NCR",28.629808,77.440609
"Sector 119, Noida, Delhi NCR",28.58632879,77.40106202
"WZ7, Dayalsar road, Uttam Nagar, New Delhi, Uttam Nagar, New Delhi - West, Delhi NCR",28.619779,77.056695
"Niti Khand-Indirapuram, Ghaziabad, Delhi NCR",28.6452824,77.3621025
"4f., Sector 21D, Faridabad, Delhi NCR",28.42361752,77.29221979
"heart song, Sector 108, Gurgaon, Delhi NCR",28.510596,76.988572
"UA 2 3rd Floor Usha Park Jail Road New Delhi 64, Hari Nagar, New Delhi - West, Delhi NCR",28.624575,77.10898
"Sector 37C, Sector 37C, Gurgaon, Delhi NCR",28.45149078,76.98910785
"Sector 46, Faridabad, Delhi NCR",28.43975067,77.29987335
"Sector 168, Noida, Delhi NCR",28.493556,77.409658
"A Block, Sector 45, Gurgaon, Delhi NCR",28.44363413,77.05975
"sector 84, Sector 84, Gurgaon, Delhi NCR",28.403432,76.965023
"Sector 143, Noida, Delhi NCR",28.502597,77.428742
"Sector 86, Gurgaon, Delhi NCR",28.3984598,76.9410753
"House No.349, Yusufpur Chak Shaberi, Greater Noida West, Noida Extension, Noida, Delhi NCR",28.61891351,77.41169891
"Sector 10 dwarka., Sector 10 Dwarka, New Delhi - Dwarka, Delhi NCR",28.588867,77.060315
"Vasundhara Ghaziabad, Sector 5 Vasundhara, Ghaziabad, Delhi NCR",28.63634682,77.43357849
"Crossings Republik, Ghaziabad, Delhi NCR",28.6297895,77.4338883
"Nehru Nagar, Ghaziabad, Delhi NCR",28.6588755,77.4432295
"E 65 ff amar colony., Amar Colony, New Delhi - South, Delhi NCR",28.56134987,77.24330139
"Chopal nayak mohalla VPO Bijwasan New Delhi 110061, Bijwasan, New Delhi - South, Delhi NCR",28.5290451,77.052948
"APH 3 SCOTTISH GARDEN INDIRAPURAM, Ahinsa Khand 2, Ghaziabad, Delhi NCR",28.64389992,77.38421631
"Sector 13 Vasundhara, Ghaziabad, Delhi NCR",28.6543295,77.3646575
"South City 1, Gurgaon, Delhi NCR",28.4570251,77.0646805
"Nirvana Country, Gurgaon, Delhi NCR",28.414627,77.060127
"tulip orange, Sector 70, Gurgaon, Delhi NCR",28.39568075,77.02979199
"Sector 13 Rohini, New Delhi - Rohini, Delhi NCR",28.71674547,77.13219339
"Sector 70, Faridabad, Delhi NCR",28.33785984,77.35192461
"Omicron, Greater Noida, Omicron, Greater Noida, Delhi NCR",28.4751606,77.55141449
"Saini, Greater Noida, Delhi NCR",28.56885309,77.49129944
"Ashoka Enclave, Ashoka Enclave Part 1, Faridabad, Delhi NCR",28.46847725,77.31389618
"Sector 70, Faridabad, Sector 70, Faridabad, Delhi NCR",28.33785984,77.35192461
"Sector 65, Gurgaon, Delhi NCR",28.403028,77.075396
"Sector 70, Faridabad, Delhi NCR",28.33785984,77.35192461
"Sector 88, Faridabad, Sector 88, Faridabad, Delhi NCR",28.41086241,77.35251455
"Sector 46, Noida, Delhi NCR",28.55075433,77.36168745
"Sector 50 Block F, Noida, Delhi NCR",28.5715015,77.3734019
"Sector 88, Faridabad, Delhi NCR",28.42126356,77.35181375
"Sector 75, Noida, Delhi NCR",28.57743,77.37941479
"Sector 137, Noida, Sector 137, Noida, Delhi NCR",28.509118,77.413416
"Gayatri tower, NH 24, Ghaziabad, Delhi NCR",28.666747,77.479096
"Gurgaon - Faridabad Road, Gurgaon, Delhi NCR",28.436305,77.13605
"Vaishali, Ghaziabad, Delhi NCR",28.6441755,77.336519
"Anand Vihar, Ghaziabad, Delhi NCR",28.63850176,77.32532487
"Gardenia Grace Noida Sec61, Sector 61, Noida, Delhi NCR",28.59308815,77.36784363
"Laxman Vihar, Gurgaon, Delhi NCR",28.4812055,77.0089031
"Sector 99, Gurgaon, Delhi NCR",28.45705159,76.96089212
"Indirapuram, Ghaziabad, Delhi NCR",28.6493479,77.3696259
"G-5 South City 2, South City 1 Block G, Gurgaon, Delhi NCR",28.45667076,77.06417847
"Vaibhav Khand, Indirapuram, Indirapuram, Ghaziabad, Delhi NCR",28.6493479,77.3696259
"Flat No 1903, Sector 79, Gurgaon, Delhi NCR",28.37423557,76.95241631
"Sector 75, Noida, Delhi NCR",28.57743,77.37941479
"B-111, 3rd Floor, Sector 8, Dwarka, New Delhi, Sector 8 Dwarka, New Delhi - Dwarka, Delhi NCR",28.5712738,77.07314301
"B-709, Sector 119, Noida, Delhi NCR",28.58632879,77.40106202
"Phi 3, Greater Noida, Delhi NCR",28.448405,77.522452
"741., Indirapuram, Ghaziabad, Delhi NCR",28.64739445,77.381411
"Dharamshila Rd, B1, Paryatan Vihar, Vasundhara Enclave, New Delhi, Vasundhara Enclave, New Delhi - East, Delhi NCR",28.60052361,77.31160783
"Kadambari appartment sector-9, Sector 9 Rohini, New Delhi - Rohini, Delhi NCR",28.71483231,77.12369537
"Mayfield Garden, Gurgaon, Delhi NCR",28.4252114,77.062731
"Flate No3 3rd floor 341 Mehrauli New Delhi, Mehrauli, New Delhi - South, Delhi NCR",28.51879501,77.30749512
"Gali no-5, Surat Nagar 1, Gurgaon, Delhi NCR",28.48537636,77.00331879
"Dwarka Mor, New Delhi - West, Delhi NCR",28.619316,77.033262
"ace platinum, Zeta 1, Greater Noida, Delhi NCR",28.50289726,77.5262146
"D 662 Avenue 1, Gaur City 1, Sector 4, Greater Noida West, Sector 4, Greater Noida, Delhi NCR",28.6109351,77.4294948
"Sector-Pi, Greater Noida, Delhi NCR",28.4737346,77.5413219
"Sector 78, Faridabad, Sector 78, Faridabad, Delhi NCR",28.38413776,77.36817314
"Sector 37D, Gurgaon, Delhi NCR",28.447828,76.970377
"Phi 2, Greater Noida, Delhi NCR",28.4469189,77.517486
"NH 24, Ghaziabad, Delhi NCR",28.685449,77.5092258
"Sector 9, Gurgaon, Delhi NCR",28.466682,76.9997245
"Raj Nagar Extension, Ghaziabad, Delhi NCR",28.70336119,77.42396147
"Mahagunpuram, Ghaziabad, Delhi NCR",28.66605568,77.47985077
"Sector 137, Noida, Delhi NCR",28.51183419,77.41127367
"Sector 51, Gurgaon, Delhi NCR",28.4287815,77.0661409
"Crossings Republik, Ghaziabad, Delhi NCR",28.630654,77.436644
"Ace Platinum, Zeta I, Greater Noida, Uttar Pradesh 201306, Zeta 1, Greater Noida, Delhi NCR",28.49937354,77.51894613
"Near Grads international School, Eta 2, Greater Noida, Delhi NCR",28.496992,77.537536
"M3M Woodshire, Sector 107, Gurgaon, Delhi NCR",28.514908,76.974388
"Vipin Garden near by Metro station, Sainik Nagar-Nawada, New Delhi - West, Delhi NCR",28.621087,77.0252325
"1403, Sector 13 Vasundhara, Ghaziabad, Delhi NCR",28.6543295,77.3646575
"C-16, Greater Noida, Delhi NCR",28.453581,77.556221
"Phi 2, Greater Noida, Delhi NCR",28.4469189,77.517486
"Indirapuram, Ghaziabad, Delhi NCR",28.6493479,77.3696259
"Sohna Sector 32, Gurgaon, Sector 32 Sohna, Gurgaon, Delhi NCR",28.251834,77.067419
"New Delhi, Indraprastha Extension, New Delhi - East, Delhi NCR",28.62867165,77.30213165
"New Delhi, Kiran Garden, New Delhi - West, Delhi NCR",28.61848831,77.04781342
"Rampuri, Ghaziabad, Delhi NCR",28.6692791,77.33071899
"Greater Noida West, Greater Noida, Delhi NCR",28.606945,77.45557857
"Shalimar Garden Extension 1, Ghaziabad, Delhi NCR",28.6900486,77.3405361
"CBR Chwok, aya nagar, Aya Nagar, New Delhi - South, Delhi NCR",28.4706925,77.127446
"Sahibabad, Ghaziabad, Delhi NCR",28.6644882,77.3474938
"Gyan Khand 1, Ghaziabad, Delhi NCR",28.641779,77.3502969
"D-38A, Top Floor, Shyam Nagar, Vishnu garden, New Delhi-110018, Shyam Nagar, New Delhi - West, Delhi NCR",28.6475563,77.10384369
"Techzone 4, Greater Noida, Delhi NCR",28.5859957,77.4338341
"Sector 82, Faridabad, Delhi NCR",28.3926115,77.3573515
"Sector 89A, Gurgaon, Delhi NCR",28.4321283,76.9414616
"Sector 74, Noida, Delhi NCR",28.5783723,77.3873
"Raj Nagar Extension, Ghaziabad, Delhi NCR",28.70219771,77.4059697
"Shahdara, New Delhi - East, Delhi NCR",28.68249512,77.26712799
"Vasundhara, Ghaziabad, Delhi NCR",28.659557,77.3747659
"Raj Nagar Extension, Ghaziabad, Delhi NCR",28.70405388,77.43733215
"Sector 77, Gurgaon, Delhi NCR",28.3824895,76.9823169
"chander nagar, Janakpuri, New Delhi - West, Delhi NCR",28.6210537,77.0905304
"Sector 1 Vasundhara, Ghaziabad, Delhi NCR",28.664996,77.3898739
"Lal Kuan, Ghaziabad, Delhi NCR",28.6336095,77.4713825
"16th Park view, Gaur Yamuna city, Yamuna Expressway, Greater Noida, Delhi NCR",28.309616,77.55859
"Gwal PahariGurugram, 122003, Gwal Pahari, Gurgaon - South, Delhi NCR",28.436305,77.13605
"Dwarka Mor, New Delhi - West, Delhi NCR",28.619316,77.033262
"Sector 57 Block G, Gurgaon, Delhi NCR",28.425727,77.0886735
"C-16, Greater Noida, C-16, Greater Noida, Delhi NCR",28.453581,77.556221
"sector 10A, Sector 10 Vasundhara, Ghaziabad, Delhi NCR",28.66301727,77.36760712
"C 253 facing West side, pandav nagar, Pandav Nagar, New Delhi - East, Delhi NCR",28.610933,77.2739145
"Sector 89A, Gurgaon, Delhi NCR",28.437583,76.946194
"Sector 86, Gurgaon, Sector 86, Gurgaon, Delhi NCR",28.3981,76.93333
"Dwarka, New Delhi, Sector 6 Pocket 1 Dwarka, New Delhi - Dwarka, Delhi NCR",28.59045062,77.06124353
"Ramprastha Colony, Ghaziabad, Delhi NCR",28.6589432,77.32223
"Sector 84, Gurgaon, Delhi NCR",28.4028972,76.9782285
"S block, Uppal Southend, Gurgaon, Delhi NCR",28.40874481,77.04502106
"Indirapuram, Ghaziabad, Delhi NCR",28.63796787,77.34816731
"Sector 88, Faridabad, Delhi NCR",28.420501,77.356478
"Gh 12., Paschim Vihar, New Delhi - West, Delhi NCR",28.6677244,77.0979515
"Sohna Road, Uppal Southend, Gurgaon, Delhi NCR",28.4087443,77.0450224
"Yamuna Expressway, Greater Noida, Uttar Pradesh, Tech Zone, Greater Noida, Delhi NCR",28.310997,77.562296
"Mehrauli, New Delhi - South, Delhi NCR",28.5201861,77.179158
"Sector 67, Gurgaon, Delhi NCR",28.386595,77.0605754
"Sector 95, Gurgaon, Delhi NCR",28.420952,76.910875
"G T Road, Ghaziabad, Delhi NCR",28.6769466,77.3959458
"Sohna, Gurgaon, Delhi NCR",28.266656,77.064897
"NRI Residency, Sec-45, Noida, Sector 45, Noida, Delhi NCR",28.54653581,77.35266846
"Om Sai Apartments, Palam Colony, New Delhi - Dwarka, Delhi NCR",28.5922719,77.0836826
"Baharampur Naya, Gurgaon, Delhi NCR",28.410373,77.09672
"Yamuna Expressway, Greater Noida, Delhi NCR",28.309616,77.55859
"Kiran Garden, New Delhi - West, Delhi NCR",28.61848831,77.04781342
"Greater Noida West, Greater Noida, Delhi NCR",28.606945,77.45557857
"Sohna Road, Sector 33, Gurgaon, Delhi NCR",28.4372909,77.0235049
"Raj Nagar Extension, Ghaziabad, Delhi NCR",28.70183798,77.42320672
"F-276, Laxmi Nagar, street no.21, Adjoining  AVB public school, Delhi -110092, Laxmi Nagar, New Delhi - East, Delhi NCR",28.63596725,77.26956177
"surajkund Road Sectore 21 C, Sector 21C, Faridabad, Delhi NCR",28.42945701,77.29000305
"Sushant Lok Phase 3, Gurgaon, Delhi NCR",28.4239653,77.0839297
"Orange Drive, Malibu Town, Gurgaon, Delhi NCR",28.42242813,77.04646301
"Subhash Nagar, New Delhi - West, Delhi NCR",28.63835144,77.11314392
"Sector 5 Rajendra Nagar, Ghaziabad, Delhi NCR",28.6809994,77.356998
"Mayur Vihar 3, New Delhi - East, Delhi NCR",28.61469078,77.3330307
"Sector 37D, Gurgaon, Delhi NCR, Sector 37C, Gurgaon, Delhi NCR",28.44926,76.98476024
"Nightingale Rd, Phase 1, Vikaspuri, Delhi, Vikaspuri Block D, New Delhi - West, Delhi NCR",28.640016,77.064811
"Vaishali, Ghaziabad, Neelpadam Kunj Complex, Ghaziabad, Delhi NCR",28.64431,77.331787
"Rajendra Park Block B, Gurgaon, Delhi NCR",28.49515724,77.00867462
"Sector 75, Noida, Delhi NCR",28.576256,77.383182
"Sector 62, Gurgaon, Sector 62, Gurgaon, Delhi NCR",28.403349,77.088901
"Chhattarpur, New Delhi - South, Delhi NCR",28.4958944,77.1859976
"third floor plot no 3414, Sushant Lok 3 Extension, Gurgaon, Delhi NCR",28.4180181,77.0760705
"Pari Chowk, Greater Noida, Delhi NCR",28.46103793,77.50762733
"Lal Kuan, Ghaziabad, Delhi NCR",28.6336095,77.4713825
"""A"" Block DLF Dilshad Extn, Dlf Dilshad Extension, Ghaziabad, Delhi NCR",28.694197,77.329295
"plot no GH 05, tech zone-4, Greater noida, Uttar Pradesh-201010, Tech Zone, Greater Noida, Delhi NCR",28.400922,77.51969
"Chi 5, Greater Noida, Delhi NCR",28.430981,77.507275
"Sector 95, Gurgaon, Delhi NCR",28.420952,76.910875
"sec 1 near apex golf, Greater Noida West, Greater Noida, Delhi NCR",28.58388698,77.43216868
"Vikaspuri Block C, New Delhi - West, Delhi NCR",28.6350975,77.0711441
"Sector 76, Noida, Sector 76, Noida, Delhi NCR",28.56541475,77.383196
"Dwarka, New Delhi - Dwarka, Delhi NCR",28.57331085,77.04484558
"Sector 21 Surya Vihar-, Gurgaon, Delhi NCR",28.51767159,77.07597351
"Sector 37D, Gurgaon, Delhi NCR",28.45251307,76.97627035
"greenarch, near ek moorti chok, Noida Extension, Greater Noida, Delhi NCR",28.600152,77.449731
"Sector 168, Noida, Delhi NCR",28.497364,77.41004824
"Indirapuram, Ghaziabad, Indirapuram, Ghaziabad, Delhi NCR",28.63746404,77.3957075
"Sector 37C, Gurgaon, Delhi NCR",28.447866,76.98171288
"Raj Nagar Extension, Ghaziabad., Raj Nagar Extension, Ghaziabad, Delhi NCR",28.72243837,77.44603523
"Bahrampur, Ghaziabad, Delhi NCR",28.63363759,77.40378377
"Sector 88, Faridabad, Delhi NCR",28.41669089,77.35491947
"Shakarpur, New Delhi - East, Delhi NCR",28.6287985,77.2800824
"Crossings Republik, Ghaziabad, Crossings Republik, Ghaziabad, Delhi NCR",28.6244715,77.4383996
"Surajpur, Greater Noida, Surajpur, Greater Noida, Delhi NCR",28.51163007,77.52004788
"Zeta 1, Greater Noida, Delhi NCR",28.49937354,77.51894613
"106., Jwalapuri, New Delhi - West, Delhi NCR",28.677789,77.0802034
"Ashok Vihar Phase 3 Extension, Gurgaon, Delhi NCR",28.4941085,77.0257
"Sector 21C, Faridabad, Delhi NCR",28.4331716,77.29144566
"winter hills sector 77, Sector 77 Gurgaon, Sector 77, Gurgaon, Delhi NCR",28.38401706,76.97970505
"E/CA-601, City Apartments, NH-24, Ghaziabad, NH 24, Ghaziabad, Delhi NCR",28.654612,77.486901
"Greater Noida West, Greater Noida, Gautam budh nagar, Greater Noida, Delhi NCR",28.633148,77.371138
"Flat no 202, lane no 3 ratan vihar, rajendra park near VGR mall, Ratan Vihar, Gurgaon, Delhi NCR",28.49311829,77.01239777
"HNo- 119, Street 14, Near Satyam Public School, Bhagwati Garden Extension, Dwarka Mor, New Delhi - West, Delhi NCR",28.619316,77.033262
"Shakti Khand 2, Ghaziabad, Delhi NCR",28.6467392,77.3709475
"Plot no154 Flat noA3 Gyan Khand2 Indrapuram Ghaziabad Near, Gyan Khand 2, Ghaziabad, Delhi NCR",28.71299553,77.28531647
"H.No. 538, Street 14, Karehra Colony, Mohan Nagar, Ghaziabad, Mohan Nagar, Ghaziabad, Delhi NCR",28.69029045,77.37688446
"Sector 37C, Gurgaon, Delhi NCR",28.449384,76.98441
"Beta 1, Greater Noida, Delhi NCR",28.4804406,77.506164
"Sector 80, Faridabad, Delhi NCR",28.3751182,77.34874476
"558 shakti khand 3 indirapuram Ghaziabad, Indirapuram, Ghaziabad, Delhi NCR",28.6500637,77.3637503
"Govondpuram, Govindpuram, Ghaziabad, Delhi NCR",28.6896453,77.4933302
"Amrapali zodiac Sector 120 Noida, Sector 120, Noida, Delhi NCR",28.532778,77.377052
"Sector 85, Faridabad, Delhi NCR",28.4042306,77.3559561
"Bh-404, Abhimanyu apartment, Vasundhara enclave, new Delhi -110096, Vasundhara Enclave, New Delhi - East, Delhi NCR",28.60135623,77.31935835
"NH 24, Ghaziabad, Delhi NCR",28.630654,77.436644
"Sector 85, Gurgaon, Delhi NCR",28.405706,76.953427
"Sector 118, Noida, Delhi NCR",28.580262,77.403976
"karkardooma metro station near Arjuna apartment, Karkardooma, New Delhi - East, Delhi NCR",28.65128899,77.28226471
"TF-04, VRINDAVAN APARTMENT-3, Krishna Kunj-II, Govindpuram, Ghaziabad, Delhi NCR",28.6896453,77.4933302
"Raj Nagar Extension, Ghaziabad, Delhi NCR",28.7040534,77.4373305
"35\25-26, Ground Floor, Front Side West Patel Nagar., Patel Nagar West, New Delhi - West, Delhi NCR",28.65242958,77.1643219
"Sector 102, Gurgaon, Delhi NCR",28.474268,76.96496
"Rajnagar Extension, Ghaziabad, Raj Nagar Extension, Ghaziabad, Delhi NCR",28.72243837,77.44603523
"NH-58 Raj Nagar Extension Ghaziabad, Raj Nagar Extension, Ghaziabad, Delhi NCR",28.70011412,77.42626251
"Ghaziabad, Shalimar Garden Extension 1, Ghaziabad, Delhi NCR",28.69004822,77.34053802
"Noida Extension, Greater Noida, Delhi NCR",28.605871,77.450236
"Raj Nagar Extension, Ghaziabad, Delhi NCR",28.703253,77.42124207
"Ashok Vihar Phase 2, Gurgaon, Delhi NCR",28.4838094,77.027832
"Sector 102, Dwarka Expressway Gurgaon, Haryana, Sector 102, Gurgaon, Delhi NCR",28.48021,76.969179
"Greater Noida West, Greater Noida, Delhi NCR",28.60595894,77.44451141
"M3M sierra 68 Gurgaon, Sector 68, Gurgaon, Delhi NCR",28.386791,77.049466
"Ahinsa Khand 1, Ghaziabad, Delhi NCR",28.6402995,77.369307
"Vasant Kunj Enclave, New Delhi - South, Delhi NCR",28.5247097,77.13414764
"flat no S 2 plot no 354, Niti Khand-Indirapuram, Ghaziabad, Delhi NCR",28.64528275,77.36209869
"Sector 137, Noida, Sector 137, Noida, Delhi NCR",28.509118,77.413416
"Sector 47, Gurgaon, Delhi NCR",28.4258675,77.0475735
"Sector 107, Noida, Delhi NCR",28.55000582,77.37582016
"Sector 63 Block A, Noida, Delhi NCR",28.62171,77.38175
"rajnagar extansion brave hert road, Raj Nagar Extension, Ghaziabad, Delhi NCR",28.705966,77.433808
"B4, plot 166, shakti khand 2  indirapuram, Shakti Khand, Ghaziabad, Delhi NCR",28.64859324,77.37943921
"Raj Nagar Extension, Ghaziabad, Delhi NCR",28.7040534,77.4373305
"M Tower on 14th Floor (Total 15 Floors), Sector 76, Noida, Delhi NCR",28.56854169,77.37929993
"Neeti Khand 2, Ghaziabad, Delhi NCR",28.6446415,77.371908
"Sector 83, Gurgaon, Sector 83, Gurgaon, Delhi NCR",28.399598,76.97150985
"Gali no. 2, Ashok Vihar Phase 2, Gurgaon, Delhi NCR",28.4838094,77.027832
"Sahibabad, Ghaziabad, Delhi NCR",28.6644882,77.3474938
"Ramprastha Colony, Ghaziabad, Delhi NCR",28.6589432,77.32223
"Raj Nagar Extension, Ghaziabad, Garhi, Ghaziabad, Delhi NCR",28.703253,77.42124207
"C-16, Greater Noida, Delhi NCR",28.453581,77.556221
"Padam Nagar, New Delhi - Central, Delhi NCR",28.66634941,77.18881989
"Madhav kunj plot No 19, Shalimar Garden Extension 1, Ghaziabad, Delhi NCR",28.690406,77.34064189
"b4/2 diffence colony apposit lemon tree hotel sohna road gurgaon, Sohna Road, Gurgaon, Delhi NCR",28.4102438,77.0411697
"NH24 Ghaziabad, NH 24, Ghaziabad, Delhi NCR",28.63580894,77.48130035
"Sector 1, Greater Noida, Delhi NCR",28.56681643,77.44775161
"Sector 52, Gurgaon, Delhi NCR",28.438262,77.0793005
"Sector 92, Gurgaon, Delhi NCR",28.4096109,76.9141943
"Uttam Nagar, New Delhi - West, Delhi NCR",28.6212874,77.0530735
"Crossings Republik, Ghaziabad, Delhi NCR",28.631927,77.437442
"Sector 70, Gurgaon, Delhi NCR",28.394708,77.01856
"Noida-Greater Noida Expy, Sultanpur, Sector 128, Noida, Uttar Pradesh., Sultanpur, Noida, Delhi NCR",28.526552,77.363882
"12B jain road bhagwati garden extension, Bhagwati Garden Extension, New Delhi - West, Delhi NCR",28.62267113,77.03329468
"Palam Vihar, Gurgaon, Delhi NCR",28.5080324,77.0336072
"Sector 33, Sohna, Gurgaon, Sector 32 Sohna, Gurgaon, Delhi NCR",28.283756,77.079837
"Sector 16, Greater Noida, Delhi NCR",28.577868,77.48322
"Sector 10, Greater Noida, Delhi NCR",28.571936,77.479001
"Indirapuram, Ghaziabad, Ahinsa Khand 2, Ghaziabad, Delhi NCR",28.64045562,77.380211
"F-1764., Sainik Colony, Faridabad, Delhi NCR",28.398028,77.2752245
"Bhopura, Ghaziabad, Delhi NCR",28.728555,77.337353
"Alana Appartments Noida Sec73, Sector 73, Noida, Delhi NCR",28.58901405,77.38101959
"Sector 77, Noida, Delhi NCR",28.56902615,77.39297
"Raj Nagar Extension, Ghaziabad, Delhi NCR",28.705425,77.433193
"Rani Bagh, New Delhi - West, Delhi NCR",28.6171627,77.07132721
"Indirapuram, Ghaziabad, Delhi NCR",28.63459786,77.36155217
"Sector 37D, Gurgaon, Delhi NCR",28.45833751,76.970345
"Sector 118, Noida, Sector 118, Noida, Delhi NCR",28.580262,77.403976
"Sector 5 Rohini, New Delhi - Rohini, Delhi NCR",28.71613693,77.10414886
"Sohna, Gurgaon, Sector 2 Sohna, Gurgaon, Delhi NCR",28.266656,77.064897
"Sector 5 Vaishali, Ghaziabad, Delhi NCR",28.643642,77.34532
"Indirapuram, Shakti Khand 4, Ghaziabad, Delhi NCR",28.65082932,77.37139893
"Sector 108 Parx Laureate, Noida, Delhi NCR",28.52436638,77.37460327
"Noida Extension, Greater Noida, Delhi NCR",28.616346,77.362221
"Greater Noida West, Noida, Delhi NCR",28.61926701,77.42851839
"Zeta 2, Greater Noida, Delhi NCR",28.508557,77.5341136
"D 702., Sector 30, Faridabad, Delhi NCR",28.44783793,77.31728468
"F 248, 2nd floor, Sushant Lok 2, Gurgaon, Delhi NCR",28.424897,77.084986
"Greater Noida West, Greater Noida, Delhi NCR",28.5906689,77.45786265
"sadullapur, Sadullapur, Greater Noida, Delhi NCR",28.591666,77.484749
"S-2, A-86, Rampuri, Ghaziabad, Rampuri, Ghaziabad, Delhi NCR",28.6708215,77.3291634
"Sector 87, Faridabad, Delhi NCR",28.41202244,77.34366202
"Noida sec 143, Sector 143, Noida, Delhi NCR",28.502597,77.428742
"Raj Bagh, Ghaziabad, Delhi NCR",28.6809766,77.3501214
"Sector 143, Noida, Delhi NCR",28.5028911,77.4257
"Plot No 54-55, Street No: 4, Rajendra Park, Gurgaon, Delhi NCR",28.4938375,77.0071875
"Sector 37D, Gurgaon, Sector 37D, Gurgaon, Delhi NCR",28.448734,76.971233
"Aashiyana, New Gwal Pahari Gurgoan, Gwal Pahari, Gurgaon - South, Delhi NCR",28.4305781,77.147745
"Sector 78, Faridabad, Delhi NCR",28.38396187,77.3684844
"Neeti Khand 1, Ghaziabad, Delhi NCR",28.6446455,77.3645325
"Sector 168, Noida, Delhi NCR",28.49629327,77.40851995
"Sector 87, Faridabad, Delhi NCR",28.41202244,77.34366202
"Phi 1, Greater Noida, Phi 1, Greater Noida, Delhi NCR",28.46968524,77.53829896
"Orchid Island, Gurgaon, Delhi NCR",28.42827225,77.06991577
"Sector 33, Sohna, Gurgaon, Delhi NCR",28.247592,77.069185
"Sushant Lok 1, Gurgaon, Delhi NCR",28.454191,77.0837996
"Sector 109, Gurgaon, Delhi NCR",28.5081375,77.008965
"Sanjay Nagar, Ghaziabad, Delhi NCR",28.6957931,77.4540746
"Raj Nagar Extension, Ghaziabad, Raj Nagar Extension, Ghaziabad, Delhi NCR",28.702659,77.417298
"Sector 143 B, Noida, Delhi NCR",28.495486,77.25219
"Sector MI, Manesar, Gurgaon, Delhi NCR",28.490613,77.080014
"Indirapuram, Ghaziabad, Delhi NCR",28.6493479,77.3696259
"Indirapuram, Ghaziabad, Delhi NCR",28.634729,77.35832
"NH 24, Ghaziabad, Delhi NCR",28.658647,77.4757
"Greater Noida West, Greater Noida, Greater Noida West, Greater Noida, Delhi NCR",28.57150245,77.47434003
"H-119, Palam vihar extension, Palam Vihar Extension, Gurgaon, Delhi NCR",28.49823761,77.04836273
"Sector 53, Noida, Uttar Pradesh, Sector 53, Noida, Delhi NCR",28.5905383,77.35981
"Techzone 4, Greater Noida, Delhi NCR",28.5859957,77.4338341
"Sector 45 Road, Sadarpur, Sector-45, Noida, Uttar Pradesh 201303, Sector 45, Noida, Delhi NCR",28.55515417,77.35494629
"SLF VED VIHAR, Loni Dehat, Ghaziabad, Delhi NCR",28.75767708,77.29827881
"Noida Extension, Greater Noida West, Noida, Delhi NCR",28.61926701,77.42851839
"Sector 10A, Gurgaon, Delhi NCR",28.4446244,77.009305
"Greater Faridabad, Sector 86, Neharpar, Faridabad, Delhi NCR",28.390701,77.3408206
"gh-01, sector-01 Greater Noida (West), Ace City Noida Extension, Sector 1, Greater Noida, Uttar Pradesh 201306, Noida Extension Block A, Noida, Delhi NCR",28.562096,77.45247174
"Ajnara genx crossing republic ghaziabad, NH 24, Ghaziabad, Delhi NCR",28.630654,77.436644
"Sector 79, Faridabad, Sector 81, Faridabad, Delhi NCR",28.3924416,77.3442485
"Bhola Nath Nagar, New Delhi - East, Delhi NCR",28.6685046,77.287636
"Nawada, New Delhi - West, Delhi NCR",28.6271769,77.0396183
"sector 37d, Sector 37D, Gurgaon, Delhi NCR",28.447972,76.970278
"Pipal Road, Mohan Garden, New Delhi - West, Delhi NCR",28.63306427,77.03317261
"Shalimar garden extension 2 Ghaziabad, Shalimar Garden Extension 2, Ghaziabad, Delhi NCR",28.63620186,77.43346405
"Niti Khand-Indirapuram, Ghaziabad, Delhi NCR",28.6452824,77.3621025
"Sector 110, Noida, Sector 110, Noida, Delhi NCR",28.53208958,77.3784309
"Raj Nagar Extension Ghaziabad, Raj Nagar Extension, Ghaziabad, Delhi NCR",28.70217,77.430308
"Knowledge Park 5, Greater Noida, Delhi NCR",28.55265808,77.4715271
"Noida Extension, Greater Noida, Delhi NCR",28.616346,77.362221
"Sector 77, Gurgaon, Delhi NCR",28.387426,76.979751
"Sector 93B, Noida, Sector 93B, Noida, Delhi NCR",28.51127434,77.39168882
"Sainik Nagar, New Delhi - West, Delhi NCR",28.6176548,77.04246521
"2 bhk., Noida Extension, Greater Noida, Delhi NCR",28.572023,77.432904
"pilot no 822 rajinder nager sec 3 Ghaziyabad, Sahibabad, Ghaziabad, Delhi NCR",28.685675,77.3503251
"Sector 10, Greater Noida, Delhi NCR",28.571936,77.479001
"Sector 79, Gurgaon, Sector 79, Gurgaon, Delhi NCR",28.3589451,76.971745
"Noida Extension, Greater Noida, Delhi NCR",28.605958,77.444512
"NH 24, Ghaziabad, Delhi NCR",28.638572,77.4308515
"Sector 52, Gurgaon, Sector 52 Wazirabad, Gurgaon, Delhi NCR",28.4365764,77.083589
"B 487, 3rd Floor, Sudershan Park, Motinagar, New Delhi, Sudarshan Park, New Delhi - West, Delhi NCR",28.66199112,77.13422394
"1134, Tower E, GC5, 5th Avenue, Gaur City 1, Noida Extension, Greater Noida, Sector 4, Greater Noida, Delhi NCR",28.6109351,77.4294948
"Sector 2 Vaishali, Ghaziabad, Delhi NCR",28.638839,77.3405445
"Omega 2, Greater Noida, Delhi NCR",28.4611974,77.5111725
"S 002 pan oasis sector 70 noida, Sector 70, Noida, Delhi NCR",28.594127,77.38197233
"74., Sector 13 Rohini, New Delhi - Rohini, Delhi NCR",28.7185467,77.1280819
"Sector 5 Vaishali, Ghaziabad, Delhi NCR",28.643642,77.34532
"Greater Noida West, Greater Noida, Delhi NCR",28.610849,77.456875
"NH 24, Ghaziabad, Delhi NCR",28.519997,77.376873
"Sultanpur, New Delhi - South, Delhi NCR",28.4969141,77.1652546
"Noida Extension, Greater Noida, Delhi NCR",28.604884,77.425914
"Sector 5 Rajendra Nagar, Ghaziabad, Delhi NCR",28.6809994,77.356998
"Raj Nagar 2, New Delhi - South, Delhi NCR",28.5771809,77.0776363
"Sector 95, Gurgaon, Sector 95, Gurgaon, Delhi NCR",28.4150217,76.9103909
"Greater Noida West, Greater Noida, Delhi NCR",28.57223,77.474898
"near dwarka mor metro station, Sewak Park, New Delhi - Dwarka, Delhi NCR",28.61631584,77.03421021
"New Krishna Park, New Delhi - West, Delhi NCR",28.6308651,77.07584381
"Vaishali, Ghaziabad, Delhi NCR",28.65199101,77.35176664
"Chetan sakhuja D block Moti nagar new delhi 110015, Moti Nagar, New Delhi - West, Delhi NCR",28.65513229,77.14551544
"Park Facing Unit, Sector 88, Faridabad, Delhi NCR",28.41333894,77.35582759
"Indirapuram Ghaziabad, Shakti Khand 3, Ghaziabad, Delhi NCR",28.63624001,77.43367004
"Sector 1, Greater Noida West., Noida Extension, Noida, Delhi NCR",28.562096,77.45247174
"Sector 29, Noida, Delhi NCR",28.56997559,77.33621524
"sec 37 c, Sector 37C, Gurgaon, Delhi NCR",28.447866,76.98171288
"Tulip Violet Society, Sector 69, Gurugram, Haryana 122101, Sector 69, Gurgaon, Delhi NCR",28.39393115,77.031069
"Vaibhav Khand, Ghaziabad, Delhi NCR",28.6357095,77.3655985
"I 1108 KW Shrishti raj nagar extention Ghaziabad, Raj Nagar Extension, Ghaziabad, Delhi NCR",28.70217,77.430308
"Sector 50, Gurgaon, Delhi NCR",28.413093,77.060553
"Vasundhara Ghaziabad, Sector 15 Vasundhara, Ghaziabad, Delhi NCR",28.63628197,77.43370056
"Mahurali, Ghaziabad, Delhi NCR",28.6562233,77.48049164
"Shalimar garden, Ghaziabad, Delhi NCR",28.6895689,77.3386129
"Sector 16, Greater Noida, Delhi NCR",28.57786751,77.48322296
"Crossings Republik, Ghaziabad, Uttar Pradesh, Crossings Republik, Ghaziabad, Delhi NCR",28.6244715,77.4383996
"G.T road Ghaziabad, G T Road, Ghaziabad, Delhi NCR",28.67717118,77.33733943
"Sector 119, Noida, Delhi NCR",28.588371,77.400313
"Zeta 1, Greater Noida, Zeta 1, Greater Noida, Delhi NCR",28.50772403,77.52093696
"Crossings Republik, Ghaziabad, Crossings Republik, Ghaziabad, Delhi NCR",28.629808,77.440609
"near dwarka mor metro station, Sewak Park, New Delhi - Dwarka, Delhi NCR",28.61631584,77.03421021
"2349., Yamuna Expressway, Greater Noida, Delhi NCR",28.309616,77.55859
"127-A turab nagar, ghaziabad, Turab Nagar, Ghaziabad, Delhi NCR",28.65969849,77.43391418
"Bhopura, Ghaziabad, Delhi NCR",28.7005505,77.3286995
"2nd Floor, Sector 68, Gurgaon, Delhi NCR",28.386791,77.049466
"Bhopura, Ghaziabad, Delhi NCR",28.714474,77.33133463
"Sector 82A, Gurgaon, Delhi NCR",28.3848309,76.9653225
"Sector 86, Faridabad, Delhi NCR",28.4033165,77.34233
"Sector 21D, Faridabad, Delhi NCR",28.417927,77.289035
"Swaran Jayanti Puram, Ghaziabad, Delhi NCR",28.6896586,77.4863846
"Sector 4, Greater Noida, Delhi NCR",28.6109351,77.4294948
"Ram Prastha, Ghaziabad, Delhi NCR",28.657986,77.320947
"Freedom Fighters Enclave, New Delhi - South, Delhi NCR",28.51025009,77.1989975
"Lal Kuan, Ghaziabad, Delhi NCR",28.6336095,77.4713825
"Sector 16, Noida, Delhi NCR",28.5776795,77.3149005
"F003, ground floor, 2bhk, park facing, Sector 143, Noida, Delhi NCR",28.502597,77.428742
"Raj Nagar Extension, Ghaziabad, Raj Nagar Extension, Ghaziabad, Delhi NCR",28.703253,77.42124207
"Sector 117, Noida, Delhi NCR",28.58036,77.398933
"Sector 84, Gurgaon, Sector 84, Gurgaon, Delhi NCR",28.403432,76.965023
"1195 sq feet  ready to move A10 tower, Noida Extension, Noida, Delhi NCR",28.592372,77.453675
"Sector 90, Gurgaon, Delhi NCR",28.4073309,76.9365692
"Raj Nagar Extension, Ghaziabad, Delhi NCR",28.699069,77.43082211
"Indirapuram, Ghaziabad, Indirapuram, Ghaziabad, Delhi NCR",28.63929749,77.37432187
"Mahagunpuram, Ghaziabad, Delhi NCR",28.66605568,77.47985077
"14th Floor, Indirapuram, Ghaziabad, Delhi NCR",28.63527193,77.37039464
"B 1408., Omicron 3, Greater Noida, Delhi NCR",28.47722356,77.55106462
"Sector 118, Noida, Sector 118, Noida, Delhi NCR",28.580262,77.403976
"Sector 57, Gurgaon, Delhi NCR",28.4215541,77.0780609
"Bhopura, Ghaziabad, Delhi NCR",28.7005505,77.3286995
"Noida Extension, Noida, Noida Extension Block A, Noida, Delhi NCR",28.531915,77.40155
"B-111 Mall Road, Greenfield Colony, Faridabad, Delhi NCR",28.4661095,77.3000508
"NH 24, Ghaziabad, Delhi NCR",28.638572,77.4308515
"Kinauni Village, Indirapuram, Ghaziabad, Uttar Pradesh ., Indirapuram, Ghaziabad, Delhi NCR",28.656289,77.37688423
"Outram Lines, New Delhi - North, Delhi NCR",28.70140076,77.20785522
"610 tower K urban homes NH 24 Ghaziabad, NH 24, Ghaziabad, Delhi NCR",28.658647,77.4757
"Krishna Kunj Apartments, Sector 7 Dwarka, New Delhi - Dwarka, Delhi NCR",28.5876818,77.0728034
"Block 19 Springfield's Colony Sector 31 Faridabad, Sector 31, Faridabad, Delhi NCR",28.4501165,77.3148562
"149 RajBag GT road shahiba bad, Sahibabad, Ghaziabad, Delhi NCR",28.6644882,77.3474938
"Palam Vihar Pocket H, Gurgaon, Delhi NCR",28.51414108,77.03983307
"H-1101., Raj Nagar Extension, Ghaziabad, Delhi NCR",28.701622,77.430153
"Chi 2, Greater Noida, Delhi NCR",28.2734,77.3106
"Sector 56, Gurgaon, Delhi NCR",28.42866,77.09296492
"Sector 70, Gurgaon, Delhi NCR",28.414412,77.04162
"Sukhdev Vihar, New Delhi - South, Delhi NCR",28.55383873,77.27410126
"New Colony, Gurgaon, Delhi NCR",28.465525,77.0171795
"C 206 Logix Zest, Sector 143, Noida, Delhi NCR",28.50076733,77.4242
"D140., Fateh Nagar, New Delhi - West, Delhi NCR",28.63476944,77.04912567
"Indirapuram, Ghaziabad, Nyay Khand 1, Ghaziabad, Delhi NCR",28.634228,77.354869
"Sahibabad, Ghaziabad, Delhi NCR",28.6644882,77.3474938
"Indirapuram, Ghaziabad, Indirapuram, Ghaziabad, Delhi NCR",28.64374316,77.38275902
"sector 111, palam vihar ext., Sector 111, Gurgaon, Delhi NCR",28.524995,77.031893
"street no 31/1 L 1st, Sangam Vihar, New Delhi - South, Delhi NCR",28.49855614,77.24030304
"Sushant Lok, Gurgaon, Delhi NCR",28.4634554,77.076527
"Eta 2, Greater Noida, Delhi NCR",28.496992,77.537536
"Raj Nagar, New Delhi - South, Delhi NCR",28.63361359,77.09880066
"Siddhartha Vihar, Ghaziabad, Delhi NCR",28.6390982,77.412377
"Inderpuri, New Delhi - West, Delhi NCR",28.631237,77.1473146
"Raj Nagar Extension, Ghaziabad, Delhi NCR",28.7040534,77.4373305
"Indirapuram, Ghaziabad, Delhi NCR",28.6493479,77.3696259
"Sector b pocket 8&9 vasant kunj., Sector B Vasant Kunj, New Delhi - South, Delhi NCR",28.5264864,77.158826
"Sun 1, 2101, Omicron 3, Greater Noida, Delhi NCR",28.474501,77.553187
"Greater Noida West, Greater Noida, Delhi NCR",28.605958,77.444512
"Noida Extension, Noida, Delhi NCR",28.61984203,77.42532135
"Sector 86, Gurgaon, Delhi NCR",28.3984598,76.9410753
"Devli, New Delhi - South, Delhi NCR",28.4957949,77.2367195
"Sector 76, Noida, Delhi NCR",28.5684777,77.3775
"Sector 70, Gurgaon, Sector 70, Gurgaon, Delhi NCR",28.400504,77.028946
"plot no 419 flat no G3 sector 4 Vaishali Ghaziabad, Sector 4 Vaishali, Ghaziabad, Delhi NCR",28.61801529,77.27937317
"Sector 69, Gurgaon, Sector 69, Gurgaon, Delhi NCR",28.397731,77.036526
"Sector 37C, Gurgaon, Delhi NCR",28.449908,76.9876925
"NH 24, Ghaziabad, Delhi NCR",28.638572,77.4308515
"c block ashoka part 2, Ashoka Enclave Part 2, Faridabad, Delhi NCR",28.4801967,77.3113014
"C 06., Sector 9 Dwarka, New Delhi - Dwarka, Delhi NCR",28.5796887,77.0708801
"F 19 b royal casa shushant lok 2 near hong kong bazar sector 57 gurgaon, Golf course Extension Road, Gurgaon, Delhi NCR",28.4157673,77.0852147
"Maruti Kunj, Gurgaon, Delhi NCR",28.35214424,77.07849121
"Sector 79, Noida, Delhi NCR",28.5584978,77.3926304
"Sector 19, Noida, Delhi NCR",28.577393,77.324235
"B1-606, Suptertech ECO-!, Noida Extension, Noida, Delhi NCR",28.596504,77.330535
"Star Rameshwaram Society, Raj Nagar Extension, Ghaziabad, Delhi NCR",28.7040534,77.4373305
"Siddhartha Vihar, Ghaziabad, Delhi NCR",28.646286,77.406051
"flat no. C 603 sixth floor plot no.10 sec 5 dwarka New Delhi 110075, Sector 5 Dwarka, New Delhi - Dwarka, Delhi NCR",28.60231547,77.0566328
"Sector 70A, Gurgaon, Delhi NCR",28.384034,77.01669
"Sector 120, Noida, Sector 120, Noida, Delhi NCR",28.532778,77.377052
"sector 118 noida, Sector 118, Noida, Delhi NCR",28.580262,77.403976
"Shipra Suncity, Ghaziabad, Delhi NCR",28.6358105,77.3739109
"Crossings Republik, Ghaziabad, Delhi NCR",28.62493876,77.43445654
"Raj Nagar Extension, Ghaziabad, Raj Nagar Extension, Ghaziabad, Delhi NCR",28.704541,77.42919553
"Sector 16C, Greater Noida West, Noida Extension, Noida, Delhi NCR",28.620768,77.425805
"Sector 82, Faridabad, Delhi NCR",28.3998257,77.353173
"Mahavir Enclave Part 1, New Delhi - Dwarka, Delhi NCR",28.5980365,77.0765245
"Raj Nagar Extension, Ghaziabad, Delhi NCR",28.7040534,77.4373305
"Sector 82, Gurgaon, Delhi NCR",28.38981649,76.969342
"Amrit Nagar, Ghaziabad, Delhi NCR",28.64221573,77.44528961
"flat no 407 tower A2 SCC heights raj Nagar extension ghaziabad, Raj Nagar Extension, Ghaziabad, Delhi NCR",28.70627576,77.41879325
"Crossings Republik, Ghaziabad, Crossings Republik, Ghaziabad, Delhi NCR",28.6292392,77.44028831
"20 Floor Salwood Tower, Sector 16, Greater Noida, Delhi NCR",28.577868,77.48322
"Sector 137, Noida, Sector 137, Noida, Delhi NCR",28.51183419,77.41127367
"Palam Vihar, Gurgaon, Delhi NCR",28.50042532,77.00773017
"Siddhartha Vihar, Ghaziabad, Delhi NCR",28.646286,77.406051
"A305 Moti Residency Rajnagar Extension Morta, Morta, Ghaziabad, Delhi NCR",28.7063305,77.411229
"PI 2, Greater Noida., PI 2, Greater Noida, Delhi NCR",28.475274,77.545978
"New Delhi, Chittaranjan Park, New Delhi - South, Delhi NCR",28.53787231,77.24923706
"Raj Nagar Extension, Ghaziabad, Delhi NCR",28.701595,77.427639
"Sector 77, Noida, Sector 77, Noida, Delhi NCR",28.57204228,77.39106873
"Gurgaon - Faridabad Road, Gurgaon, Delhi NCR",28.436305,77.13605
"Mahavir Enclave Part 1, New Delhi - Dwarka, Delhi NCR",28.5980365,77.0765245
"Shyam Park Main, Ghaziabad, Delhi NCR",28.6757134,77.3713574
"Noida Extension, Noida, Delhi NCR",28.620301,77.422387
"Sector 75, Faridabad, Delhi NCR",28.37161658,77.35101791
"E 7, Galaxy Apartments, F Block, Vikaspuri, Vikaspuri, New Delhi - West, Delhi NCR",28.64422782,77.07031494
"b2 1st floor, Noida Extension, Noida, Delhi NCR",28.6079894,77.4409944
"Sector 70, Faridabad, Delhi NCR",28.33785984,77.35192461
"Sector 79, Gurgaon, Delhi NCR",28.3638276,76.9793108
"Upsidc Site B, Surajpur, Greater Noida, Delhi NCR",28.5151375,77.495836
"Sector 25 Rohini, New Delhi - Rohini, Delhi NCR",28.7344974,77.094249
"Ramprastha Colony, Ghaziabad, Delhi NCR",28.65894318,77.32222748
"Suraj Khand, Sector 43, Faridabad, Delhi NCR",28.4528905,77.291966
"A-103, Sikka Classic Homes, GH249, Sector Rd, Bhuapur Village, Vaishali, Ghaziabad, Uttar Pradesh, Ram Nagar-Kaushambi, Ghaziabad, Delhi NCR",28.63850176,77.32532487
"196., Shakti Khand 2, Ghaziabad, Delhi NCR",28.64673996,77.37094879
"Sector 76, Noida, Delhi NCR",28.5684777,77.3775
"Sector 77, Noida, Delhi NCR",28.5680204,77.3890864
"Sector 5 Vaishali, Ghaziabad, Delhi NCR",28.643642,77.34532
"Greater Noida West, Noida, Delhi NCR",28.605958,77.444512
"B 26 block, NH 24, Ghaziabad, Delhi NCR",28.63633957,77.47928727
"Rampuri, Ghaziabad, Delhi NCR",28.6708215,77.3291634
"Sector 33, Gurgaon, Sector 33, Gurgaon, Delhi NCR",28.429674,77.029914
"Raj Nagar Extension, Ghaziabad, Delhi NCR",28.699069,77.43082211
"Sector 6 Rohini, New Delhi - Rohini, Delhi NCR",28.71431541,77.11326599
"1002., Sector 1, Greater Noida, Delhi NCR",28.577319,77.443531
"Sector 79, Gurgaon, Delhi NCR",28.3638276,76.9793108
"Judges Enclave, Ahinsa Khand 2, Indirapuram, Ghaziabad, Uttar Pradesh, Kamma 1, Ghaziabad, Delhi NCR",28.645769,77.38511
"With Roof Right, Vipin Garden, New Delhi - West, Delhi NCR",28.62475777,77.0268631
"Sector 74, Noida, Delhi NCR",28.616077,77.389867
"ashok Vihar near by Gurgaon Railway Station gali no. 3, Ashok Vihar, Gurgaon, Delhi NCR",28.48690033,77.01540375
"Dwarka Sector 6, New Delhi, Sector 6 Dwarka, New Delhi - Dwarka, Delhi NCR",28.593846,77.065492
"C 802 Apex Athena Sector 75Noida, Sector 75, Noida, Delhi NCR",28.6001358,77.44554138
